{"company":"dhl","name":"12fone","address":"Hoofddorpweg 12, 1058PB Amsterdam","geometry":{"type":"Point","coordinates":[4.85154607,52.35116123]}}
{"company":"dhl","name":"ASK Tabakshop","address":"Rhijnvis Feithstraat 45, 1054TW Amsterdam","geometry":{"type":"Point","coordinates":[4.85994484,52.35953059]}}
{"company":"dhl","name":"AZ Personeelsbeheer","address":"Groot Blankenberg 30, 1082AD Amsterdam","geometry":{"type":"Point","coordinates":[4.87832008,52.32405538]}}
{"company":"dhl","name":"Akash Multi Plaza 14B","address":"Holendrechtplein 14B, 1106LN Amsterdam","geometry":{"type":"Point","coordinates":[4.96330203,52.29990308]}}
{"company":"dhl","name":"Avia Hof van Zaenden","address":"Hof van Zaenden 230, 1508XJ Zaandam","geometry":{"type":"Point","coordinates":[4.81833894,52.45616647]}}
{"company":"dhl","name":"Bakkerij Tetteroo en van Manen","address":"Dorpsstraat 8A, 1399GV Muiderberg","geometry":{"type":"Point","coordinates":[5.115983,52.32691584]}}
{"company":"dhl","name":"Barcan","address":"P. Calandlaan 228G, 1069LA Amsterdam","geometry":{"type":"Point","coordinates":[4.79794918,52.35189519]}}
{"company":"dhl","name":"Bloembinderij De Vaas van Han","address":"Rimsky Korssakovweg 35, 1323LP Almere","geometry":{"type":"Point","coordinates":[5.19082125,52.36667419]}}
{"company":"dhl","name":"Bornfietsen nl","address":"K.v.Oosterwijklaan 47-49, 1181DS Amstelveen","geometry":{"type":"Point","coordinates":[4.85993234,52.31777141]}}
{"company":"dhl","name":"Coco Records","address":"Zuiddijk 107, 1501CD Zaandam","geometry":{"type":"Point","coordinates":[4.83026131,52.43789323]}}
{"company":"dhl","name":"Copy Stop Centrum","address":"Wijdesteeg 3-B, 1012RN Amsterdam","geometry":{"type":"Point","coordinates":[4.8898737,52.37155748]}}
{"company":"dhl","name":"DA Drog Parf Buitenveldert","address":"Buitenveldertselaan 162, 1081AC Amsterdam","geometry":{"type":"Point","coordinates":[4.86791985,52.32534039]}}
{"company":"dhl","name":"DHL Buurtpunt Homerr Alex 2","address":"Maassluisstraat 2, 1062GD Amsterdam","geometry":{"type":"Point","coordinates":[4.83620742,52.35122563]}}
{"company":"dhl","name":"DHL Buurtpunt Homerr Dennis 1321","address":"J.J. Slauerhoffstraat 140, 1321RK Almere","geometry":{"type":"Point","coordinates":[5.17832468,52.35583762]}}
{"company":"dhl","name":"DHL Buurtpunt Homerr Franklin 1506","address":"MenschikoffstraatÂ  58, 1506RP Zaanstad","geometry":{"type":"Point","coordinates":[4.82112166,52.43730169]}}
{"company":"dhl","name":"DHL Buurtpunt Homerr Luciano 30","address":"Zuidwoldepad 30, 1324AS Almere","geometry":{"type":"Point","coordinates":[5.21346532,52.37191551]}}
{"company":"dhl","name":"DHL Buurtpunt Homerr Nathalie 1326","address":"Ebenezer Howardpark 18, 1326EA Almere","geometry":{"type":"Point","coordinates":[5.24407268,52.37073277]}}
{"company":"dhl","name":"DHL Buurtpunt Homerr Raymond","address":"Hofmark 16, 1355HA Almere","geometry":{"type":"Point","coordinates":[5.22849772,52.34394171]}}
{"company":"dhl","name":"DHL Buurtpunt Homerr Rick 1317","address":"Wijtingstraat 1, 1317RH Almere","geometry":{"type":"Point","coordinates":[5.23149606,52.39155684]}}
{"company":"dhl","name":"DHL Buurtpunt Homerr Shannon 39","address":"Habanerastraat 39, 1326MA Almere","geometry":{"type":"Point","coordinates":[5.2537567,52.36410281]}}
{"company":"dhl","name":"DHL Buurtpunt Homerr Sheila 13","address":"Sinderenstraat 13, 1107TK Amsterdam","geometry":{"type":"Point","coordinates":[4.969674,52.28976512]}}
{"company":"dhl","name":"DHL Buurtpunt Homerr Sylvia 16","address":"Naardenstraat 16, 1324SP Almere","geometry":{"type":"Point","coordinates":[5.20821339,52.3658369]}}
{"company":"dhl","name":"DHL Buurtpunt ViaTim en Brianne 164","address":"Middelgronden 164, 1274BV Huizen","geometry":{"type":"Point","coordinates":[5.26469308,52.30388885]}}
{"company":"dhl","name":"DHL Buurtpunt ViaTim en Dreamscom","address":"Hoofdweg 138, 1057DA Amsterdam","geometry":{"type":"Point","coordinates":[4.85345507,52.36450769]}}
{"company":"dhl","name":"DHL Buurtpunt ViaTim en Ingrid 18","address":"Hagedoornweg 18- C, 1031BR Amsterdam","geometry":{"type":"Point","coordinates":[4.91281132,52.38941364]}}
{"company":"dhl","name":"DHL Buurtpunt ViaTim en Johnnij","address":"Zeistpad 47, 1324NB Almere","geometry":{"type":"Point","coordinates":[5.2055502,52.36328118]}}
{"company":"dhl","name":"DHL Buurtpunt ViaTim en Loek en Lia","address":"Geertruida van Lierstraat 51, 1069PE Amsterdam","geometry":{"type":"Point","coordinates":[4.78233762,52.35149288]}}
{"company":"dhl","name":"DHL Buurtpunt ViaTim en Melanie 27","address":"Schovenstraat 27, 1097ZX Amsterdam","geometry":{"type":"Point","coordinates":[4.94194799,52.33902489]}}
{"company":"dhl","name":"DHL Buurtpunt ViaTim en Michelle 1","address":"Esdoornplantsoen 52, 1326BZ Almere","geometry":{"type":"Point","coordinates":[5.2509031,52.376285]}}
{"company":"dhl","name":"DHL Buurtpunt ViaTim en Sjef 17","address":"Kuipersstraat 17-H, 1074EE Amsterdam","geometry":{"type":"Point","coordinates":[4.90556809,52.35435034]}}
{"company":"dhl","name":"DHL Buurtpunt ViaTim en Staatsliedenwijk","address":"Clemenceaustraat 17, 1314RM Almere","geometry":{"type":"Point","coordinates":[5.22074421,52.38075607]}}
{"company":"dhl","name":"DHL Buurtpunt ViaTim en Wendy 74","address":"J. Kruijverstraat 74, 1507WK Zaandam","geometry":{"type":"Point","coordinates":[4.79957434,52.45065029]}}
{"company":"dhl","name":"DHL Homerrpoint By Anouschka","address":"Lindenlaan 62, 1271BB Huizen","geometry":{"type":"Point","coordinates":[5.2369352,52.29485255]}}
{"company":"dhl","name":"DHL Homerrpoint Dapper Telecom","address":"Dapperstraat 295, 1093BS Amsterdam","geometry":{"type":"Point","coordinates":[4.92873426,52.36109324]}}
{"company":"dhl","name":"DHL Homerrpoint Ely Telecom","address":"Mosplein 30, 1032JX Amsterdam","geometry":{"type":"Point","coordinates":[4.91362907,52.3924954]}}
{"company":"dhl","name":"DHL Homerrpoint Giftshop Effenes","address":"Nieuwezijds Voorburgwal 29, 1012RD Amsterdam","geometry":{"type":"Point","coordinates":[4.89488368,52.37671277]}}
{"company":"dhl","name":"DHL Homerrpoint Het Broeker Huis","address":"Leeteinde 16, 1151AK Broek in waterland","geometry":{"type":"Point","coordinates":[4.99292771,52.43717126]}}
{"company":"dhl","name":"DHL Homerrpoint Vroom Optiek","address":"Ouddiemerlaan 16, 1111HJ Diemen","geometry":{"type":"Point","coordinates":[4.96229633,52.33893263]}}
{"company":"dhl","name":"DHL Parcel Amsterdam","address":"Kaapstadweg 25, 1047HG Amsterdam","geometry":{"type":"Point","coordinates":[4.735294,52.40875319]}}
{"company":"dhl","name":"DHL Shipping Spot","address":"Van Baerlestraat 114, 1071BC Amsterdam","geometry":{"type":"Point","coordinates":[4.88018596,52.35545687]}}
{"company":"dhl","name":"DHL Winkelpunt ViaTim Verfdiscount","address":"De Steiger 93, 1351AH Almere","geometry":{"type":"Point","coordinates":[5.22626111,52.35089477]}}
{"company":"dhl","name":"DHL pakketautomaat Akerpoort A'dam","address":"Zuidermolenweg 50, 1069CG Amsterdam","geometry":{"type":"Point","coordinates":[4.78241053,52.35986146]}}
{"company":"dhl","name":"DHL pakketautomaat Food Passage","address":"Schippergarage 13, 1315SC Almere","geometry":{"type":"Point","coordinates":[5.21872611,52.36820987]}}
{"company":"dhl","name":"DHL pakketautomaat Keizer Karelweg","address":"Keizer Karelweg 223-PS, 1181RC Amstelveen","geometry":{"type":"Point","coordinates":[4.85675591,52.30307717]}}
{"company":"dhl","name":"DHL pakketautomaat Tribes Debussyln","address":"Claude debussylaan 7, 1082MC Amsterdam","geometry":{"type":"Point","coordinates":[4.87203328,52.33745594]}}
{"company":"dhl","name":"DHL pakketautomaat Tribes Jachthave","address":"Jachthavenweg 109A, 1081KM Amsterdam","geometry":{"type":"Point","coordinates":[4.85467312,52.3364174]}}
{"company":"dhl","name":"DHL","address":"Isaac Gogelweg 2-PS, 1051DB Amsterdam","geometry":{"type":"Point","coordinates":[4.86745991,52.38218594]}}
{"company":"dhl","name":"DHL","address":"Kromwijkdreef 6-PS, 1104KM Amsterdam","geometry":{"type":"Point","coordinates":[4.98190675,52.31452409]}}
{"company":"dhl","name":"DHL","address":"Laarderhoogtweg 5-PS, 1101DZ Amsterdam","geometry":{"type":"Point","coordinates":[4.94763332,52.30276252]}}
{"company":"dhl","name":"DHL","address":"Sniep 22-PS, 1112AH Diemen","geometry":{"type":"Point","coordinates":[4.97897158,52.33268643]}}
{"company":"dhl","name":"DHL","address":"Uilenstede 356-PS, 1183DB Amstelveen","geometry":{"type":"Point","coordinates":[4.87462456,52.32109402]}}
{"company":"dhl","name":"Drogisterij Body  Beauty","address":"Jan Pieter Heijestraat 150, 1054MK Amsterdam","geometry":{"type":"Point","coordinates":[4.86445556,52.36168968]}}
{"company":"dhl","name":"Drogisterij Body Beauty","address":"Jan Pieter Heijestraat 150, 1054MK Amsterdam","geometry":{"type":"Point","coordinates":[4.86445556,52.36168968]}}
{"company":"dhl","name":"Drogisterij IJburg","address":"ijburglaan 723, 1087BS Amsterdam","geometry":{"type":"Point","coordinates":[4.99077292,52.35795584]}}
{"company":"dhl","name":"Drop and Go","address":"Prins Hendrikkade 86, 1012AE Amsterdam","geometry":{"type":"Point","coordinates":[4.90169757,52.37674091]}}
{"company":"dhl","name":"Emco","address":"Nieuwezijds Voorburgwal 91, 1012RE Amsterdam","geometry":{"type":"Point","coordinates":[4.89211368,52.3748947]}}
{"company":"dhl","name":"Fix Mobi","address":"Burgemeester de Vluchtlaan 168, 1063BS Amsterdam","geometry":{"type":"Point","coordinates":[4.82321756,52.38138105]}}
{"company":"dhl","name":"Fix Mobi.","address":"Linnaeusstraat 66, 1092CN Amsterdam","geometry":{"type":"Point","coordinates":[4.92695655,52.35697896]}}
{"company":"dhl","name":"Gijs de Haan meer dan klussen","address":"Kerkstraat 34, 1191JD Oudekerk ad amstel","geometry":{"type":"Point","coordinates":[4.9028822,52.2963074]}}
{"company":"dhl","name":"Haqs International","address":"Javastraat 10, 1094HG Amsterdam","geometry":{"type":"Point","coordinates":[4.93216074,52.36338035]}}
{"company":"dhl","name":"IJzerhandel Baltus","address":"Zwanenburgerdijk 446-448, 1161NV Zwanenburg","geometry":{"type":"Point","coordinates":[4.7501616,52.38135458]}}
{"company":"dhl","name":"Joepie Food  Drinks","address":"Oudeweg 147, 2031CC Haarlem","geometry":{"type":"Point","coordinates":[4.6662182,52.38688126]}}
{"company":"dhl","name":"Joepie Food Drinks","address":"Oudeweg 147, 2031CC Haarlem","geometry":{"type":"Point","coordinates":[4.6662182,52.38688126]}}
{"company":"dhl","name":"Juwelier G en S v. Vlaanderen","address":"Zuiderhoofdstraat 3, 1561AH Krommenie","geometry":{"type":"Point","coordinates":[4.76678122,52.49663043]}}
{"company":"dhl","name":"Lavici","address":"Kinkerstraat 150, 1053EH Amsterdam","geometry":{"type":"Point","coordinates":[4.86871431,52.36641129]}}
{"company":"dhl","name":"Lukoil Zaandam.","address":"Provincialeweg 47, 1506MB Zaandam","geometry":{"type":"Point","coordinates":[4.81195888,52.44231277]}}
{"company":"dhl","name":"Meester schoenmaker de driepoot","address":"Markt 28, 1354AV Almere-haven","geometry":{"type":"Point","coordinates":[5.21935679,52.33638825]}}
{"company":"dhl","name":"Pakketautomaat Lidl Huizen","address":"Warandebergstraat 47, 1271ZC Huizen","geometry":{"type":"Point","coordinates":[5.2363498,52.30509805]}}
{"company":"dhl","name":"Paramaribo Cargo Service","address":"Kruitberg 2010A, 1104CA Amsterdam","geometry":{"type":"Point","coordinates":[4.97765574,52.31750237]}}
{"company":"dhl","name":"Parcls De Pijp","address":"Ceintuurbaan 11, 1072ER Amsterdam","geometry":{"type":"Point","coordinates":[4.88740288,52.35245951]}}
{"company":"dhl","name":"Parcls Vijzelstraat","address":"Vijzelstraat 105, 1017HH Amsterdam","geometry":{"type":"Point","coordinates":[4.8922894,52.36309456]}}
{"company":"dhl","name":"PartsNL Amsterdam","address":"Burg.de.Vlugtlaan 29-31, 1063BG Amsterdam","geometry":{"type":"Point","coordinates":[4.83415606,52.37921294]}}
{"company":"dhl","name":"Phone Hospital","address":"Gedempte Gracht 2, 1506CE Zaandam","geometry":{"type":"Point","coordinates":[4.8232266,52.43984635]}}
{"company":"dhl","name":"Poorts Kledingreparatie en Stomerij","address":"Poseidonsingel 42, 1363TR Almere","geometry":{"type":"Point","coordinates":[5.14856344,52.35502901]}}
{"company":"dhl","name":"RD Telecom","address":"Sierplein 39, 1065LM Amsterdam","geometry":{"type":"Point","coordinates":[4.82594005,52.35532975]}}
{"company":"dhl","name":"Schoenmakerij de Leeuw","address":"Eerste van Swindenstraat 62, 1093GG Amsterdam","geometry":{"type":"Point","coordinates":[4.92709099,52.36241705]}}
{"company":"dhl","name":"Shoeby Huizen","address":"Oude Raadhuisplein 6, 1271RH Huizen","geometry":{"type":"Point","coordinates":[5.2355971,52.29783736]}}
{"company":"dhl","name":"Shoeby Krommenie","address":"Zuiderhoofdstraat 38, 1561AM Krommenie","geometry":{"type":"Point","coordinates":[4.76776225,52.49777458]}}
{"company":"dhl","name":"Sigarenmagazijn van Wijk","address":"Sloterweg 85-D, 1171CH Badhoevedorp","geometry":{"type":"Point","coordinates":[4.78058383,52.33918248]}}
{"company":"dhl","name":"Sikan Lederwaren","address":"Jan Evertsenstraat 83, 1057BR Amsterdam","geometry":{"type":"Point","coordinates":[4.85421933,52.37055089]}}
{"company":"dhl","name":"Singh Kwieker Wasserij","address":"Derkinderenstraat 72-74, 1062BJ Amsterdam","geometry":{"type":"Point","coordinates":[4.84072145,52.36249026]}}
{"company":"dhl","name":"Tabacco en More","address":"Nieuwezijds Voorburgwal 344, 1012RX Amsterdam","geometry":{"type":"Point","coordinates":[4.88913868,52.3691211]}}
{"company":"dhl","name":"Tabakshop De Schans","address":"Marnixstraat 94-hs, 1015VZ Amsterdam","geometry":{"type":"Point","coordinates":[4.8793044,52.37907366]}}
{"company":"dhl","name":"Tabakspeciaal Sarphati","address":"Sarphatipark 20, 1072PA Amsterdam","geometry":{"type":"Point","coordinates":[4.89388844,52.35396071]}}
{"company":"dhl","name":"Tabaksspeciaalzaak Eland","address":"Elandsgracht 126H, 1016VB Amsterdam","geometry":{"type":"Point","coordinates":[4.87899118,52.36923975]}}
{"company":"dhl","name":"Tabaktief Het Rokertje","address":"Olympiaplein 124, 1076AK Amsterdam","geometry":{"type":"Point","coordinates":[4.86552581,52.34682865]}}
{"company":"dhl","name":"Team Telecom","address":"Jan Evertsenstr. 14, 1056EC Amsterdam","geometry":{"type":"Point","coordinates":[4.85859851,52.37149626]}}
{"company":"dhl","name":"Techador Coco","address":"Haarlemmerdijk 141, 1013KG Amsterdam","geometry":{"type":"Point","coordinates":[4.8851856,52.38368246]}}
{"company":"dhl","name":"Toko Diemen","address":"Kruidenhof 6, 1112PS Diemen","geometry":{"type":"Point","coordinates":[4.95782017,52.33438544]}}
{"company":"dhl","name":"Top Electronics","address":"Zuideinde 105, 1541CB Koog aan de zaan","geometry":{"type":"Point","coordinates":[4.81117334,52.45931836]}}
{"company":"dhl","name":"Total Copy Service Amsterdam","address":"Eerste Oosterparkstraat 126B, 1091HG Amsterdam","geometry":{"type":"Point","coordinates":[4.91321814,52.35685285]}}
{"company":"dhl","name":"Trends for friends","address":"Bankrashof 31, 1183NR Amstelveen","geometry":{"type":"Point","coordinates":[4.87487017,52.30191985]}}
{"company":"dhl","name":"Used Products Amsterdam Centrum","address":"Prins Hendrikkade 176, 1011TC Amsterdam","geometry":{"type":"Point","coordinates":[4.91022823,52.37158319]}}
{"company":"dhl","name":"Van Beem IJzerwaren","address":"Badhoevelaan 119, 1171DC Badhoevedorp","geometry":{"type":"Point","coordinates":[4.78578391,52.34235519]}}
{"company":"dhl","name":"Verkeersschool Ally","address":"Allendestraat 115, 1314SG Almere","geometry":{"type":"Point","coordinates":[5.21759094,52.37771838]}}
{"company":"dhl","name":"Vivant Admiraal","address":"Admiraal de Ruijterweg 389H, 1055MC Amsterdam","geometry":{"type":"Point","coordinates":[4.85140427,52.38235705]}}
{"company":"dhl","name":"Vivant Meggie","address":"Clercqstraat 89, 1053AG Amsterdam","geometry":{"type":"Point","coordinates":[4.86755666,52.37016978]}}
{"company":"dhl","name":"Vivant de Eindhalte","address":"Insulindeweg 4, 1094PJ Amsterdam","geometry":{"type":"Point","coordinates":[4.93327194,52.36095794]}}
{"company":"dhl","name":"Weesper Autowas","address":"Hogeweyselaan 177C, 1382JL Weesp","geometry":{"type":"Point","coordinates":[5.02627204,52.31502616]}}
{"company":"dhl","name":"Wild Coast International","address":"Reigersbos 86B, 1106AS Amsterdam","geometry":{"type":"Point","coordinates":[4.97559447,52.29616334]}}
{"company":"dhl","name":"Woerlee Transport Service","address":"Kleine Tocht 43, 1507CA Zaandam","geometry":{"type":"Point","coordinates":[4.80868695,52.43117498]}}
{"company":"dpd","name":"Bicycle Madmen Amsterdam","address":"Ijburglaan 444, 1086ZJ Amsterdam","geometry":{"type":"Point","coordinates":[4.98061707,52.36250512]}}
{"company":"dpd","name":"Bijvoet Sport","address":"Achtergracht 2, 1381BN Weesp","geometry":{"type":"Point","coordinates":[5.03870505,52.30814003]}}
{"company":"dpd","name":"Blaricumsche Ijzerhandel","address":"Dorpsstraat 9, 1261ES Blaricum","geometry":{"type":"Point","coordinates":[5.24489682,52.27274656]}}
{"company":"dpd","name":"Business Bloemist Jan","address":"Rijksstraatweg 134A, 1115AV Duivendrecht","geometry":{"type":"Point","coordinates":[4.93737007,52.32643281]}}
{"company":"dpd","name":"Buurtpunt Sylvia","address":"Naardenstraat 16, 1324SP Almere","geometry":{"type":"Point","coordinates":[5.20821339,52.3658369]}}
{"company":"dpd","name":"Candy Freaks","address":"Nieuwe Hoogstraat 4, 1011HE Amsterdam","geometry":{"type":"Point","coordinates":[4.89926626,52.37080802]}}
{"company":"dpd","name":"Cheers Reigersbos","address":"Reigersbos 98B, 1107ES Amsterdam","geometry":{"type":"Point","coordinates":[4.97588384,52.29559462]}}
{"company":"dpd","name":"Colmado","address":"Ringdijk 50, 8244BB Lelystad","geometry":{"type":"Point","coordinates":[5.41905996,52.49968682]}}
{"company":"dpd","name":"Communication Center Osdorp","address":"Tussen Meer 100, 1069DS Amsterdam","geometry":{"type":"Point","coordinates":[4.79349147,52.35705888]}}
{"company":"dpd","name":"Copystop Centrum","address":"Wijdesteeg 3B, 1012RN Amsterdam","geometry":{"type":"Point","coordinates":[4.8898737,52.37155748]}}
{"company":"dpd","name":"Copystop","address":"Johan Van Hasseltweg 102, 1022WZ Amsterdam","geometry":{"type":"Point","coordinates":[4.92555663,52.38712721]}}
{"company":"dpd","name":"D. Narain Service Center","address":"Grubbehoeve 53, 1103GJ Amsterdam","geometry":{"type":"Point","coordinates":[4.97795273,52.32188044]}}
{"company":"dpd","name":"De Elektronica Boutique","address":"Utrechtsestraat 30H, 1017VN Amsterdam","geometry":{"type":"Point","coordinates":[4.89791168,52.36448406]}}
{"company":"dpd","name":"De Vaas Van Han","address":"Rimsky Korssakovweg 35, 1323LP Almere","geometry":{"type":"Point","coordinates":[5.19082125,52.36667419]}}
{"company":"dpd","name":"Designandmore","address":"Berlagelaan 79, 1222JP Hilversum","geometry":{"type":"Point","coordinates":[5.18642946,52.23833675]}}
{"company":"dpd","name":"Detectorforyou","address":"Reigersbos 90B, 1106AS Amsterdam","geometry":{"type":"Point","coordinates":[4.97563949,52.29617057]}}
{"company":"dpd","name":"Dierenparadijs Ijburg","address":"Ijburglaan 1307, 1087JJ Amsterdam","geometry":{"type":"Point","coordinates":[4.99810308,52.35402558]}}
{"company":"dpd","name":"Dierplezier","address":"Parlevinker 55, 1186ZB Amstelveen","geometry":{"type":"Point","coordinates":[4.86217022,52.27973044]}}
{"company":"dpd","name":"Dis","address":"Lindenlaan 382, 1185NM Amstelveen","geometry":{"type":"Point","coordinates":[4.86144238,52.29593551]}}
{"company":"dpd","name":"Discus Zodiak","address":"Philadelphiapad 20, 1334KC Almere Buiten","geometry":{"type":"Point","coordinates":[5.27595184,52.39522373]}}
{"company":"dpd","name":"Drogisterij Body&Beauty Jan Pieter","address":"Jan Pieter Heijestraat 150, 1054MK Amsterdam","geometry":{"type":"Point","coordinates":[4.86445556,52.36168968]}}
{"company":"dpd","name":"Fa Liefhebber","address":"Hoogstraat 2, 1391BS Abcoude","geometry":{"type":"Point","coordinates":[4.97427279,52.27175223]}}
{"company":"dpd","name":"For Your Taste Only","address":"Maasstraat 118, 1078HN Amsterdam","geometry":{"type":"Point","coordinates":[4.89549747,52.34386517]}}
{"company":"dpd","name":"Foto Strik Bussum","address":"Brinklaan 72, 1404GL Bussum","geometry":{"type":"Point","coordinates":[5.16249875,52.27444559]}}
{"company":"dpd","name":"GBS Tabak & Gemak","address":"Goeman Borgesiusstraat 1, 1544RM Zaandijk","geometry":{"type":"Point","coordinates":[4.81069616,52.47335465]}}
{"company":"dpd","name":"Goed Gevonden","address":"Raadhuisstraat 19, 1541JA Koog Aan De Zaan","geometry":{"type":"Point","coordinates":[4.81067111,52.46161961]}}
{"company":"dpd","name":"Gym Inn Lelystad","address":"Ketelmeerstraat 138, 8226JX Lelystad","geometry":{"type":"Point","coordinates":[5.48780898,52.49099216]}}
{"company":"dpd","name":"Hackmann 2 Wielers","address":"Hogendijk 123, 1506AG Zaandam","geometry":{"type":"Point","coordinates":[4.81860753,52.43611048]}}
{"company":"dpd","name":"Haq`S International","address":"Javastraat 6, 1094HG Amsterdam","geometry":{"type":"Point","coordinates":[4.93198485,52.36335271]}}
{"company":"dpd","name":"Hartelust","address":"Oosteinderweg 279, 1432AV Aalsmeer","geometry":{"type":"Point","coordinates":[4.78974708,52.28157314]}}
{"company":"dpd","name":"Hendrik's Ambachtelijke Vakschoenma","address":"Kastelenstraat 67A, 1083CC Amsterdam","geometry":{"type":"Point","coordinates":[4.88310986,52.32594535]}}
{"company":"dpd","name":"Het Beestenkasteel","address":"Galerij 9, 1181ZN Amstelveen","geometry":{"type":"Point","coordinates":[4.86058603,52.30414341]}}
{"company":"dpd","name":"Homerr B.V. / Alba Supermarkt","address":"Van Hallstraat 254, 1051HM Amsterdam","geometry":{"type":"Point","coordinates":[4.87138424,52.37942589]}}
{"company":"dpd","name":"Homerr B.V. / Easytell","address":"Javastraat 37, 1094GZ Amsterdam","geometry":{"type":"Point","coordinates":[4.93305222,52.36377923]}}
{"company":"dpd","name":"Homerrpoint Ask Tabaksshop","address":"Rhijnvis Feithstraat 45, 1054TW Amsterdam","geometry":{"type":"Point","coordinates":[4.85994484,52.35953059]}}
{"company":"dpd","name":"Jami's","address":"Dorpsstraat 348, 1566BR Assendelft","geometry":{"type":"Point","coordinates":[4.73950565,52.4652848]}}
{"company":"dpd","name":"Kees Boomhouwer","address":"Zijdstraat 30, 1431ED Aalsmeer","geometry":{"type":"Point","coordinates":[4.74616749,52.26873806]}}
{"company":"dpd","name":"Kinderwinkel Mevrouw Groen","address":"s-Gravelandseweg 46, 1211BT Hilversum","geometry":{"type":"Point","coordinates":[5.17109175,52.22627987]}}
{"company":"dpd","name":"Kringloop Emptor","address":"Larenseweg 9, 1221CH Hilversum","geometry":{"type":"Point","coordinates":[5.18268942,52.22767996]}}
{"company":"dpd","name":"L. Van Essen T.H.O.D.N. Dierspecial","address":"Einsteinstraat 125, 1433KH Kudelstaart","geometry":{"type":"Point","coordinates":[4.75023221,52.23426604]}}
{"company":"dpd","name":"Lavici","address":"Kinkerstraat 150, 1053EH Amsterdam","geometry":{"type":"Point","coordinates":[4.86871431,52.36641129]}}
{"company":"dpd","name":"Lock Luggage Storage","address":"Nieuwe Nieuwstraat 28, 1012NH Amsterdam","geometry":{"type":"Point","coordinates":[4.89370899,52.37537771]}}
{"company":"dpd","name":"Moeder Natuur","address":"Rijnstraat 123, 1079HB Amsterdam","geometry":{"type":"Point","coordinates":[4.90649091,52.34368564]}}
{"company":"dpd","name":"Njag","address":"Czaar Peterstraat 94A, 1018PS Amsterdam","geometry":{"type":"Point","coordinates":[4.92902741,52.36966864]}}
{"company":"dpd","name":"Okebox","address":"Morseweg 67, 1131PH Volendam","geometry":{"type":"Point","coordinates":[5.07879238,52.50555006]}}
{"company":"dpd","name":"Onderdelenshop De Bilt","address":"Hessenweg 104, 3731JM De Bilt","geometry":{"type":"Point","coordinates":[5.18104123,52.10903565]}}
{"company":"dpd","name":"Paramaribo Cargo Services","address":"Kruitberg 2010A, 1104CA Amsterdam","geometry":{"type":"Point","coordinates":[4.97765574,52.31750237]}}
{"company":"dpd","name":"Parcls.Com B.V.","address":"Ceintuurbaan 11, 1072GE Amsterdam","geometry":{"type":"Point","coordinates":[4.88846185,52.35226625]}}
{"company":"dpd","name":"Parcls.Com B.V.","address":"Spaarndammerstraat 490, 1013SZ Amsterdam","geometry":{"type":"Point","coordinates":[4.87999967,52.38890918]}}
{"company":"dpd","name":"Parcls.Com B.V.","address":"Vijzelstraat 105, 1017HH Amsterdam","geometry":{"type":"Point","coordinates":[4.8922894,52.36309456]}}
{"company":"dpd","name":"Partsnl Amsterdam","address":"Burgemeester De Vlugtlaan 29-31, 1063BG Amsterdam","geometry":{"type":"Point","coordinates":[4.83415606,52.37921294]}}
{"company":"dpd","name":"Paxshop","address":"Paxlaan 10, 2131PZ Hoofddorp","geometry":{"type":"Point","coordinates":[4.68188203,52.30899125]}}
{"company":"dpd","name":"Rd Telecom","address":"Sierplein 39, 1065LM Amsterdam","geometry":{"type":"Point","coordinates":[4.82594005,52.35532975]}}
{"company":"dpd","name":"Repairpoint","address":"Van Weedestraat 18, 3761CE Soest","geometry":{"type":"Point","coordinates":[5.29819109,52.18522706]}}
{"company":"dpd","name":"Rf Tweewielers / Fietsenstalling Ze","address":"Zeedijk 33A, 1211CV Hilversum","geometry":{"type":"Point","coordinates":[5.17541721,52.22420728]}}
{"company":"dpd","name":"Ridder En Co","address":"Ophelialaan 106, 1431HM Aalsmeer","geometry":{"type":"Point","coordinates":[4.7612747,52.26398883]}}
{"company":"dpd","name":"Ruan Creatief","address":"Brouwerstraat 16, 1315BP Almere","geometry":{"type":"Point","coordinates":[5.21752941,52.36836781]}}
{"company":"dpd","name":"Schoenmakerij De Leeuw","address":"1E Van Swindenstraat 62, 1093GG Amsterdam","geometry":{"type":"Point","coordinates":[4.92709099,52.36241705]}}
{"company":"dpd","name":"Schoenmakerij Platje","address":"Marathonweg 11, 1076SX Amsterdam","geometry":{"type":"Point","coordinates":[4.86123585,52.34845443]}}
{"company":"dpd","name":"Scooterslandsmeer","address":"Zuideinde 45b, 1121CK Landsmeer","geometry":{"type":"Point","coordinates":[4.91052373,52.42449953]}}
{"company":"dpd","name":"Service Slijters","address":"Prinses Beatrixplein 29, 2033WC Haarlem","geometry":{"type":"Point","coordinates":[4.66195186,52.3784272]}}
{"company":"dpd","name":"Sikan Lederwaren","address":"Jan Evertsenstraat 83, 1057BR Amsterdam","geometry":{"type":"Point","coordinates":[4.85421933,52.37055089]}}
{"company":"dpd","name":"Snel Tank \"Romeo Delta\"","address":"Jol 11-01, 8243ED Lelystad","geometry":{"type":"Point","coordinates":[5.44733362,52.50690649]}}
{"company":"dpd","name":"Sport & Fitness Center","address":"Markerkant 10-132d, 1316AL Almere","geometry":{"type":"Point","coordinates":[5.21980457,52.38787773]}}
{"company":"dpd","name":"Steph & Bloom","address":"Sluisplein 7, 1191GR Ouderkerk Aan De Amstel","geometry":{"type":"Point","coordinates":[4.91435273,52.2971308]}}
{"company":"dpd","name":"Studio Present","address":"Dennenlaan 64, 1161CS Zwanenburg","geometry":{"type":"Point","coordinates":[4.75019803,52.37847208]}}
{"company":"dpd","name":"Tabakshuis","address":"Haarlemmerstraat 18, 1013ER Amsterdam","geometry":{"type":"Point","coordinates":[4.8936469,52.37963762]}}
{"company":"dpd","name":"Tabakspeciaalzaak Admiraal","address":"Admiraal De Ruijterweg 389H, 1055MC Amsterdam","geometry":{"type":"Point","coordinates":[4.85140427,52.38235705]}}
{"company":"dpd","name":"Tabakszaak Atlantic","address":"Roelof Hartstraat 38, 1071VK Amsterdam","geometry":{"type":"Point","coordinates":[4.88420583,52.35222128]}}
{"company":"dpd","name":"Telefoonstad","address":"Ferdinand Bolstraat 111, 1072LE Amsterdam","geometry":{"type":"Point","coordinates":[4.89124224,52.35301493]}}
{"company":"dpd","name":"Televersum","address":"Tussen Meer 12, 1068GA Amsterdam","geometry":{"type":"Point","coordinates":[4.80199758,52.35877297]}}
{"company":"dpd","name":"Toko Suri Poort","address":"Europalaan 907, 1363BM Almere Poort","geometry":{"type":"Point","coordinates":[5.15337048,52.34664989]}}
{"company":"dpd","name":"Trefpunt Bv","address":"Laarderweg 24D, 3755AN Eemnes","geometry":{"type":"Point","coordinates":[5.26383229,52.25324667]}}
{"company":"dpd","name":"Vaww Hilversum B.V.","address":"Gijsbrecht Van Amstelstraat 161, 1214AX Hilversum","geometry":{"type":"Point","coordinates":[5.16860561,52.21557237]}}
{"company":"dpd","name":"Verwey","address":"Tweede Hugo De Grootstraat 35, 1052LB Amsterdam","geometry":{"type":"Point","coordinates":[4.87173207,52.37477177]}}
{"company":"dpd","name":"Vos' Ijzerhandel C.V.","address":"Middenweg 21, 1271AS Huizen","geometry":{"type":"Point","coordinates":[5.23688842,52.29792526]}}
{"company":"dpd","name":"Westerpark Computers & Telecom","address":"Spaarndammerstraat 636, 1013TH Amsterdam","geometry":{"type":"Point","coordinates":[4.8792243,52.38991247]}}
{"company":"dpd","name":"Wim Hogeveen Herenmode","address":"Laanstraat 65 D, 3743BB Baarn","geometry":{"type":"Point","coordinates":[5.28739024,52.211691]}}
{"company":"dpd","name":"Zaandam Bicycle","address":"Peperstraat 130, 1502AL Zaandam","geometry":{"type":"Point","coordinates":[4.82846715,52.44138996]}}
{"company":"dpd","name":"Zijwind","address":"Scheldestraat 11, 1078GD Amsterdam","geometry":{"type":"Point","coordinates":[4.89146322,52.34768612]}}
{"company":"postnl","name":"ABC Drogisterij Kruidenhof","address":"Kruidenhof 16, 1112PS Diemen","geometry":{"type":"Point","coordinates":[4.95745229,52.33403686]}}
{"company":"postnl","name":"AKO Zoetermeer","address":"Westwaarts 3, 2711AD Zoetermeer","geometry":{"type":"Point","coordinates":[4.48564844,52.06078715]}}
{"company":"postnl","name":"AKO","address":"Beethovenstraat 42, 1077JJ Amsterdam","geometry":{"type":"Point","coordinates":[4.87691984,52.34890057]}}
{"company":"postnl","name":"AKO","address":"Rivièradreef 14, 2037AG Haarlem","geometry":{"type":"Point","coordinates":[4.65393442,52.35945592]}}
{"company":"postnl","name":"APD Almeerse Pakket Dienst","address":"Camerastraat 8, 1322BC Almere","geometry":{"type":"Point","coordinates":[5.17982517,52.34939936]}}
{"company":"postnl","name":"Accent Schoenen en Sport B.V.","address":"Jan Pieter Heijestraat 182 -184, 1054MN Amsterdam","geometry":{"type":"Point","coordinates":[4.86512222,52.36068453]}}
{"company":"postnl","name":"Adas V.O.F.","address":"Ondernemingsweg 56 N, 1422DZ Uithoorn","geometry":{"type":"Point","coordinates":[4.84429246,52.24155333]}}
{"company":"postnl","name":"Albert Heijn van der Linden","address":"Amsterdamseweg 73, 1182GP Amstelveen","geometry":{"type":"Point","coordinates":[4.84634559,52.30705664]}}
{"company":"postnl","name":"Albert Heijn","address":"De Meent 19, 1218CB Hilversum","geometry":{"type":"Point","coordinates":[5.13773681,52.27079249]}}
{"company":"postnl","name":"Albert Heijn","address":"Huizerweg 8, 1261AW Blaricum","geometry":{"type":"Point","coordinates":[5.2435108,52.27344928]}}
{"company":"postnl","name":"Albert Heijn","address":"Klaverweide 10, 1511XW Oostzaan","geometry":{"type":"Point","coordinates":[4.87839504,52.43721654]}}
{"company":"postnl","name":"Albert Heijn","address":"Koekoeklaan 88, 1403EH Bussum","geometry":{"type":"Point","coordinates":[5.18369704,52.26824711]}}
{"company":"postnl","name":"Albert Heijn","address":"Lageweg 1 B, 2064KZ Spaarndam","geometry":{"type":"Point","coordinates":[4.68397273,52.41128636]}}
{"company":"postnl","name":"Albert Heijn","address":"Voorstraat 10, 1394CS Nederhorst den Berg","geometry":{"type":"Point","coordinates":[5.04470949,52.2641663]}}
{"company":"postnl","name":"Amrâth Apart-Hotel Schiphol","address":"Meidoornweg 2, 1171JW Badhoevedorp","geometry":{"type":"Point","coordinates":[4.79768282,52.33429949]}}
{"company":"postnl","name":"Anne & Co","address":"Dorpsstraat 8, 1452PD Ilpendam","geometry":{"type":"Point","coordinates":[4.95028852,52.46356876]}}
{"company":"postnl","name":"Around the Clock","address":"Legmeerdijk 313, 1431GB Aalsmeer","geometry":{"type":"Point","coordinates":[4.78541066,52.25917795]}}
{"company":"postnl","name":"Atelier La Vivere","address":"Dorpsstraat 179, 2712AJ Zoetermeer","geometry":{"type":"Point","coordinates":[4.5011729,52.05416174]}}
{"company":"postnl","name":"Attema Tweewielers","address":"Herengracht 25, 1382AG Weesp","geometry":{"type":"Point","coordinates":[5.03963029,52.3088293]}}
{"company":"postnl","name":"Attent A-Markt Gunes","address":"Albert Neuhuysstraat 32, 1058SE Amsterdam","geometry":{"type":"Point","coordinates":[4.85008252,52.35566646]}}
{"company":"postnl","name":"Attent Czaar Peter Supermarkt","address":"Czaar Peterstraat 33, 1018NX Amsterdam","geometry":{"type":"Point","coordinates":[4.9268201,52.36871637]}}
{"company":"postnl","name":"Attent Gunes","address":"Arent Janszoon Ernststr 183 -185, 1083GV Amsterdam","geometry":{"type":"Point","coordinates":[4.88442092,52.3319368]}}
{"company":"postnl","name":"Attent","address":"Minckelersstraat 43, 1223LC Hilversum","geometry":{"type":"Point","coordinates":[5.1960306,52.224945]}}
{"company":"postnl","name":"Autoradam","address":"De Strubbenweg 4, 1327GE ALMERE","geometry":{"type":"Point","coordinates":[5.25593111,52.35861537]}}
{"company":"postnl","name":"B & B Print en Office","address":"Binnenweg 68, 2101JL Heemstede","geometry":{"type":"Point","coordinates":[4.62185402,52.35178043]}}
{"company":"postnl","name":"Bilderdijk & Co","address":"Bilderdijkstraat 149, 1053KN Amsterdam","geometry":{"type":"Point","coordinates":[4.87173385,52.36830062]}}
{"company":"postnl","name":"Bilderdijk Minimarkt","address":"Bilderdijkstraat 40, 1052NB Amsterdam","geometry":{"type":"Point","coordinates":[4.87036143,52.37141338]}}
{"company":"postnl","name":"Binnenstebuiten","address":"Zaanweg 105, 1521DP Wormerveer","geometry":{"type":"Point","coordinates":[4.79106473,52.49098792]}}
{"company":"postnl","name":"Boekhandel Jimmink BV","address":"Rooseveltlaan 62, 1078NL Amsterdam","geometry":{"type":"Point","coordinates":[4.90078423,52.3448577]}}
{"company":"postnl","name":"Boni Loosdrecht","address":"Rading 146, 1231KE Loosdrecht","geometry":{"type":"Point","coordinates":[5.14333109,52.19580665]}}
{"company":"postnl","name":"Boni supermarkt","address":"Holleblok 22, 1273EG Huizen","geometry":{"type":"Point","coordinates":[5.25416057,52.3025112]}}
{"company":"postnl","name":"Boons Markt","address":"Ganzenmarkt 2 -6, 3512GD Utrecht","geometry":{"type":"Point","coordinates":[5.11889528,52.09194467]}}
{"company":"postnl","name":"Boven 't Y GSM","address":"Buikslotermeerplein 123 C, 1025ET Amsterdam","geometry":{"type":"Point","coordinates":[4.93658326,52.39917718]}}
{"company":"postnl","name":"Bread, Coffee & More","address":"Curaçaostraat 5, 1058BJ Amsterdam","geometry":{"type":"Point","coordinates":[4.85184727,52.35904486]}}
{"company":"postnl","name":"Bruna (333)","address":"Oostelijke Handelskade 1061 -1063, 1019BW Amsterdam","geometry":{"type":"Point","coordinates":[4.93802854,52.37399925]}}
{"company":"postnl","name":"Bruna (990)","address":"Forum 7, 1315TD Almere","geometry":{"type":"Point","coordinates":[5.21995273,52.36877366]}}
{"company":"postnl","name":"Bruna Aalsmeer","address":"Zijdstraat 45, 1431EA Aalsmeer","geometry":{"type":"Point","coordinates":[4.74748646,52.26849249]}}
{"company":"postnl","name":"Bruna Assendelft","address":"Kaaikhof 9, 1567JP Assendelft","geometry":{"type":"Point","coordinates":[4.75223705,52.4886765]}}
{"company":"postnl","name":"Bruna Bussum","address":"Veerplein 106, 1404DC Bussum","geometry":{"type":"Point","coordinates":[5.16193068,52.27601769]}}
{"company":"postnl","name":"Bruna Diemen","address":"Diemerplein 34 -36, 1111JD Diemen","geometry":{"type":"Point","coordinates":[4.96248304,52.34228988]}}
{"company":"postnl","name":"Bruna IJburg (745)","address":"IJburglaan 561, 1087BS Amsterdam","geometry":{"type":"Point","coordinates":[4.98931268,52.35873287]}}
{"company":"postnl","name":"Bruna Landgraaf","address":"Paganinipassage 92, 6371LJ Landgraaf","geometry":{"type":"Point","coordinates":[6.02540918,50.90562745]}}
{"company":"postnl","name":"Bruna Ronde Wormerveer","address":"Marktplein 17, 1521HS Wormerveer","geometry":{"type":"Point","coordinates":[4.78565984,52.49481087]}}
{"company":"postnl","name":"Bruna Teunissen","address":"Hatertseweg 829, 6535ZT Nijmegen","geometry":{"type":"Point","coordinates":[5.8247372,51.80752679]}}
{"company":"postnl","name":"Bruna Verdouw (8913)","address":"Rimsky-Korssakovweg 33, 1323LP Almere","geometry":{"type":"Point","coordinates":[5.19089916,52.36678269]}}
{"company":"postnl","name":"Bruna Zeist","address":"Slotlaan 197, 3701GD Zeist","geometry":{"type":"Point","coordinates":[5.24480334,52.08654413]}}
{"company":"postnl","name":"Bruna","address":"Amstelplein 81, 1421SB Uithoorn","geometry":{"type":"Point","coordinates":[4.82888779,52.23223712]}}
{"company":"postnl","name":"Bruna","address":"Belgiëplein 109 -111, 1066RC Amsterdam","geometry":{"type":"Point","coordinates":[4.81091445,52.3458653]}}
{"company":"postnl","name":"Bruna","address":"Gijsbrecht van Amstelstr 123, 1214AW Hilversum","geometry":{"type":"Point","coordinates":[5.17051046,52.21583595]}}
{"company":"postnl","name":"Bruna","address":"Hoogstraat 4, 1441BC Purmerend","geometry":{"type":"Point","coordinates":[4.94556421,52.50949636]}}
{"company":"postnl","name":"Bruna","address":"Kerkstraat 36, 1271RM Huizen","geometry":{"type":"Point","coordinates":[5.23455071,52.29748594]}}
{"company":"postnl","name":"Bruna","address":"Kerkstraat 41, 3295BD 's-Gravendeel","geometry":{"type":"Point","coordinates":[4.61545823,51.77948062]}}
{"company":"postnl","name":"Bruna","address":"Kostverlorenhof 20, 1183HE Amstelveen","geometry":{"type":"Point","coordinates":[4.87548331,52.31239898]}}
{"company":"postnl","name":"Bruna","address":"Markt 26, 6602AN Wijchen","geometry":{"type":"Point","coordinates":[5.72662878,51.80719917]}}
{"company":"postnl","name":"Bruna","address":"Noordeinde 26, 1334AV Almere","geometry":{"type":"Point","coordinates":[5.27618962,52.39557541]}}
{"company":"postnl","name":"Bruna","address":"Olympiaplein 127, 1077CX Amsterdam","geometry":{"type":"Point","coordinates":[4.86766054,52.34625384]}}
{"company":"postnl","name":"Bruna","address":"Reigersbos 60, 1106AS Amsterdam","geometry":{"type":"Point","coordinates":[4.97550458,52.29640957]}}
{"company":"postnl","name":"Bruna","address":"Scheldestraat 90, 1078GN Amsterdam","geometry":{"type":"Point","coordinates":[4.89062441,52.34526489]}}
{"company":"postnl","name":"Bruna","address":"Van Woustraat 90, 1073LP Amsterdam","geometry":{"type":"Point","coordinates":[4.90092304,52.35496049]}}
{"company":"postnl","name":"Bruna","address":"Vijf Meiplein 176 -178, 2321BT Leiden","geometry":{"type":"Point","coordinates":[4.47813678,52.1472447]}}
{"company":"postnl","name":"Business Point Van der Wal","address":"Binnendelta 1 T, 1261WZ Blaricum","geometry":{"type":"Point","coordinates":[5.28079047,52.28980622]}}
{"company":"postnl","name":"Car Cleaning Plus Webshop Gooimeer","address":"Energiestraat 14, 1411AT Naarden","geometry":{"type":"Point","coordinates":[5.15175373,52.30150474]}}
{"company":"postnl","name":"Castrikum Lectuurschop Haarlemmerst","address":"Haarlemmerstraat 41, 1013EJ Amsterdam","geometry":{"type":"Point","coordinates":[4.89333879,52.37960937]}}
{"company":"postnl","name":"Cigo Balk","address":"Postjesweg 78, 1057EE Amsterdam","geometry":{"type":"Point","coordinates":[4.85498297,52.36442469]}}
{"company":"postnl","name":"Cigo Brouwer","address":"Burg De Vlugtlaan 178, 1063BS Amsterdam","geometry":{"type":"Point","coordinates":[4.82264226,52.38147744]}}
{"company":"postnl","name":"Cigo Landsmeer","address":"Nieuwe Gouw 38, 1121GX Landsmeer","geometry":{"type":"Point","coordinates":[4.91459124,52.42842031]}}
{"company":"postnl","name":"Cigo Melcey","address":"Van Hallstraat 236, 1051HL Amsterdam","geometry":{"type":"Point","coordinates":[4.87113363,52.37950569]}}
{"company":"postnl","name":"Cigo Olympia","address":"Marathonweg 21 -23, 1076SZ Amsterdam","geometry":{"type":"Point","coordinates":[4.86166347,52.34828556]}}
{"company":"postnl","name":"Cigo Quinty","address":"Ten Katestraat 24 A, 1053CG Amsterdam","geometry":{"type":"Point","coordinates":[4.86681832,52.36676918]}}
{"company":"postnl","name":"Cigo van Vuure","address":"Reigersbos 95, 1106AR Amsterdam","geometry":{"type":"Point","coordinates":[4.97619786,52.29594462]}}
{"company":"postnl","name":"Cigo van der Pek","address":"Van der Pekstraat 137, 1031CX Amsterdam","geometry":{"type":"Point","coordinates":[4.91076816,52.39089739]}}
{"company":"postnl","name":"Cigo","address":"Pa Verkuijllaan 23, 1171EA Badhoevedorp","geometry":{"type":"Point","coordinates":[4.78001456,52.3361258]}}
{"company":"postnl","name":"Coop (2158)","address":"Phohistraat 10, 1276EH Huizen","geometry":{"type":"Point","coordinates":[5.24540824,52.2902806]}}
{"company":"postnl","name":"Coop Amsterdam","address":"Eerste Jan Steenstraat 53, 1072NB Amsterdam","geometry":{"type":"Point","coordinates":[4.88969015,52.35398808]}}
{"company":"postnl","name":"Coop Supermarkt","address":"Hooibrug 1, 1261MV Blaricum","geometry":{"type":"Point","coordinates":[5.26520973,52.28680715]}}
{"company":"postnl","name":"Coop Utrecht","address":"Croeselaan 297 -299, 3521BT Utrecht","geometry":{"type":"Point","coordinates":[5.11228481,52.0807624]}}
{"company":"postnl","name":"Coop Vandaag Utrecht","address":"Westerkade 38, 3511HC Utrecht","geometry":{"type":"Point","coordinates":[5.12218927,52.07894902]}}
{"company":"postnl","name":"Coop","address":"Dorpsstraat 9, 2441CE Nieuwveen","geometry":{"type":"Point","coordinates":[4.75681924,52.19806088]}}
{"company":"postnl","name":"Coop","address":"Niersstraat 16, 1078VK Amsterdam","geometry":{"type":"Point","coordinates":[4.89505329,52.34351013]}}
{"company":"postnl","name":"Coop","address":"Van der Hooplaan 180, 1185GK Amstelveen","geometry":{"type":"Point","coordinates":[4.8550284,52.29207359]}}
{"company":"postnl","name":"Coop","address":"Werf 15, 1435KP Rijsenhout","geometry":{"type":"Point","coordinates":[4.71502572,52.25858115]}}
{"company":"postnl","name":"CoopCompact","address":"Kerklaan 10, 1424BK De Kwakel","geometry":{"type":"Point","coordinates":[4.79387461,52.23883888]}}
{"company":"postnl","name":"DA Drogisterij Anna","address":"Einsteinstraat 85 A, 1433KJ Kudelstaart","geometry":{"type":"Point","coordinates":[4.74986959,52.23443148]}}
{"company":"postnl","name":"DA drogist","address":"Gedempte Gracht 41, 1741GB Schagen","geometry":{"type":"Point","coordinates":[4.79899743,52.78710505]}}
{"company":"postnl","name":"Dagwinkel van der Wilt","address":"Brugstraat 4, 1396JV Baambrugge","geometry":{"type":"Point","coordinates":[4.99015237,52.24643879]}}
{"company":"postnl","name":"Dapperpost","address":"Eerste Van Swindenstraat 86 A, 1093GJ Amsterdam","geometry":{"type":"Point","coordinates":[4.9284533,52.36270994]}}
{"company":"postnl","name":"De Bloementafel van Muiden","address":"Amsterdamsestraat 2, 1398BL Muiden","geometry":{"type":"Point","coordinates":[5.06771494,52.33043451]}}
{"company":"postnl","name":"De Buurt Super","address":"H. Kamerlingh Onnesweg 49, 1402ED Bussum","geometry":{"type":"Point","coordinates":[5.1827294,52.27316651]}}
{"company":"postnl","name":"De Tabakker Z.O.","address":"Holendrechtplein 4, 1106LN Amsterdam","geometry":{"type":"Point","coordinates":[4.96341742,52.30021667]}}
{"company":"postnl","name":"De Twister","address":"Westwijkplein 76, 1187LV Amstelveen","geometry":{"type":"Point","coordinates":[4.82652816,52.28189255]}}
{"company":"postnl","name":"De Voordeelmarkt Amsterdam","address":"Sijsjesbergweg 12, 1105AL Amsterdam","geometry":{"type":"Point","coordinates":[4.9433238,52.29533148]}}
{"company":"postnl","name":"De dierenspecialist Mijdrecht","address":"Prinses Margrietlaan 32, 3641HD Mijdrecht","geometry":{"type":"Point","coordinates":[4.86056609,52.20680471]}}
{"company":"postnl","name":"Deen AMSTERDAM","address":"Pampuslaan 45, 1087HP Amsterdam","geometry":{"type":"Point","coordinates":[5.00852692,52.35258275]}}
{"company":"postnl","name":"Deen Aalsmeer","address":"Molenpad 19, 1431BZ Aalsmeer","geometry":{"type":"Point","coordinates":[4.74596146,52.26911026]}}
{"company":"postnl","name":"Deen Diemen","address":"Diemerplein 14, 1111JD Diemen","geometry":{"type":"Point","coordinates":[4.9619661,52.34170103]}}
{"company":"postnl","name":"Deen Graaf willemplein","address":"Graaf Willemlaan 24, 1141XL Monnickendam","geometry":{"type":"Point","coordinates":[5.04036651,52.45489475]}}
{"company":"postnl","name":"Deen Supermarkt","address":"Gibraltar 4, 1503BM Zaandam","geometry":{"type":"Point","coordinates":[4.84738662,52.44605074]}}
{"company":"postnl","name":"Deen Zaandam Ebbehout","address":"Ebbehout 29, 1507EA Zaandam","geometry":{"type":"Point","coordinates":[4.8122151,52.4387232]}}
{"company":"postnl","name":"Deen","address":"De Stient 4, 1132BE Volendam","geometry":{"type":"Point","coordinates":[5.05304702,52.4977602]}}
{"company":"postnl","name":"Deen","address":"Langemeerstraat 2 B, 1135JE Edam","geometry":{"type":"Point","coordinates":[5.05297526,52.50725068]}}
{"company":"postnl","name":"Deen","address":"Raadhuisweg 3, 1921AA Akersloot","geometry":{"type":"Point","coordinates":[4.73043863,52.56094208]}}
{"company":"postnl","name":"Deen","address":"Rijnstraat 142 -158, 1079HP Amsterdam","geometry":{"type":"Point","coordinates":[4.90602802,52.3434789]}}
{"company":"postnl","name":"Deen","address":"Rijperweg 50, 1462ME Middenbeemster","geometry":{"type":"Point","coordinates":[4.91018415,52.54894958]}}
{"company":"postnl","name":"Deen","address":"Wagenweg 18, 1442BX Purmerend","geometry":{"type":"Point","coordinates":[4.95280909,52.51054713]}}
{"company":"postnl","name":"Dekamarkt (44418)","address":"Binnenweg 16, 2101JK Heemstede","geometry":{"type":"Point","coordinates":[4.62169233,52.35027634]}}
{"company":"postnl","name":"Dekamarkt (64683)","address":"Plein 13 103, 1521AP Wormerveer","geometry":{"type":"Point","coordinates":[4.8073887,52.48539085]}}
{"company":"postnl","name":"Despatch","address":"Kleine Tocht 28, 1507CB Zaandam","geometry":{"type":"Point","coordinates":[4.80956948,52.43115233]}}
{"company":"postnl","name":"Dilara's Photo & Videography","address":"Hoofdweg 240 H, 1057DG Amsterdam","geometry":{"type":"Point","coordinates":[4.85265582,52.36747903]}}
{"company":"postnl","name":"Doctor Mobile Schalkwijk","address":"Rivièradreef 53 -55, 2037AE Haarlem","geometry":{"type":"Point","coordinates":[4.65404581,52.35836348]}}
{"company":"postnl","name":"Donia Travel","address":"Nieuwezijds Voorburgwal 91, 1012RE Amsterdam","geometry":{"type":"Point","coordinates":[4.89211368,52.3748947]}}
{"company":"postnl","name":"Dorpsraad Driemond","address":"Stammerlandweg 10, 1109BR Amsterdam","geometry":{"type":"Point","coordinates":[5.01467667,52.30881441]}}
{"company":"postnl","name":"Drive Yourself","address":"Cruquiusweg 86, 1019AJ Amsterdam","geometry":{"type":"Point","coordinates":[4.94827964,52.36795303]}}
{"company":"postnl","name":"Drogisterij Piet","address":"John F. Kennedyplein 63 -67, 1443EB Purmerend","geometry":{"type":"Point","coordinates":[4.9691588,52.5088678]}}
{"company":"postnl","name":"Drogisterij de Wit","address":"Rembrandtweg 110, 1318KT Almere","geometry":{"type":"Point","coordinates":[5.25123525,52.38104647]}}
{"company":"postnl","name":"Drogisterij wormerplein","address":"Wormerplein 118, 1442CE Purmerend","geometry":{"type":"Point","coordinates":[4.95919332,52.51298981]}}
{"company":"postnl","name":"Drukkerij NIVO B.V.","address":"Burg van Baarstraat 42, 1131WV Volendam","geometry":{"type":"Point","coordinates":[5.06982353,52.49928918]}}
{"company":"postnl","name":"Duponshop's","address":"Kepplerstraat 54, 1501XM Zaandam","geometry":{"type":"Point","coordinates":[4.83560385,52.43873609]}}
{"company":"postnl","name":"Easy Shop De Aker/ La Sourire","address":"Pieter Calandlaan 812, 1060TZ Amsterdam","geometry":{"type":"Point","coordinates":[4.78645573,52.34978819]}}
{"company":"postnl","name":"Eazy Store BV","address":"Rozengracht 14, 1016NB Amsterdam","geometry":{"type":"Point","coordinates":[4.88224136,52.37394525]}}
{"company":"postnl","name":"Eimy Telcom","address":"Burg Van Leeuwenlaan 32 H, 1064KT Amsterdam","geometry":{"type":"Point","coordinates":[4.81242645,52.37529865]}}
{"company":"postnl","name":"Expert Landgraaf","address":"Korte Hovenstraat 5, 6374GG Landgraaf","geometry":{"type":"Point","coordinates":[6.05064006,50.91647523]}}
{"company":"postnl","name":"FD Printing Center Amsterdam","address":"Bijlmerplein 100, 1102DA Amsterdam","geometry":{"type":"Point","coordinates":[4.95105121,52.3145312]}}
{"company":"postnl","name":"Fashion Hotel Amsterdam B.V.","address":"Hendrikje Stoffelsstraat 1, 1058GC Amsterdam","geometry":{"type":"Point","coordinates":[4.84453874,52.35767241]}}
{"company":"postnl","name":"Fashionistas","address":"Gildeplein 52, 1445BM Purmerend","geometry":{"type":"Point","coordinates":[4.98496341,52.50608231]}}
{"company":"postnl","name":"Faunaland Meerland","address":"Van Burgplein 20 -21, 1447KR Purmerend","geometry":{"type":"Point","coordinates":[4.96869446,52.49430328]}}
{"company":"postnl","name":"Fiets Factory","address":"Visserspad 2 B-3, 1561PK Krommenie","geometry":{"type":"Point","coordinates":[4.77493435,52.50374907]}}
{"company":"postnl","name":"Firma Oosterwaal","address":"Brinkstraat 25, 1097VH Amsterdam","geometry":{"type":"Point","coordinates":[4.94648888,52.34224755]}}
{"company":"postnl","name":"Firma Wals - Schokker","address":"Zuideinde 15, 1151CN Broek in Waterland","geometry":{"type":"Point","coordinates":[4.99850174,52.43239938]}}
{"company":"postnl","name":"FixitNu Bv","address":"Rijnstraat 76 H, 1079HK Amsterdam","geometry":{"type":"Point","coordinates":[4.90525354,52.34546917]}}
{"company":"postnl","name":"Fotolerant","address":"Rembrandtweg 657, 1181GV Amstelveen","geometry":{"type":"Point","coordinates":[4.8628401,52.31480631]}}
{"company":"postnl","name":"Fred's Tabakshop","address":"Javastraat 77, 1094HB Amsterdam","geometry":{"type":"Point","coordinates":[4.93460868,52.3638751]}}
{"company":"postnl","name":"GAMMA Almere-Doemere","address":"New Yorkweg 211, 1334NG Almere","geometry":{"type":"Point","coordinates":[5.27328384,52.39532368]}}
{"company":"postnl","name":"GAMMA Almere-Poort","address":"Editiestraat 20, 1321NG Almere","geometry":{"type":"Point","coordinates":[5.17609213,52.35241872]}}
{"company":"postnl","name":"GAMMA Amstelveen","address":"Grutterij 1 -IND, 1185ZT Amstelveen","geometry":{"type":"Point","coordinates":[4.83436871,52.2827189]}}
{"company":"postnl","name":"GAMMA Amsterdam-Nieuwe Hemweg","address":"Nieuwe Hemweg 1, 1013BG Amsterdam","geometry":{"type":"Point","coordinates":[4.86576201,52.39417705]}}
{"company":"postnl","name":"GAMMA Diemen","address":"Sniep 28, 1112AH Diemen","geometry":{"type":"Point","coordinates":[4.97909288,52.33159006]}}
{"company":"postnl","name":"GAMMA Purmerend","address":"Einsteinstraat 10, 1446VG Purmerend","geometry":{"type":"Point","coordinates":[4.99883262,52.51235592]}}
{"company":"postnl","name":"GSMKING","address":"Javastraat 31 A, 1094GZ Amsterdam","geometry":{"type":"Point","coordinates":[4.93281779,52.3637334]}}
{"company":"postnl","name":"Gamma Compact","address":"Willem de Zwijgerlaan 336 A, 1055RD Amsterdam","geometry":{"type":"Point","coordinates":[4.86080743,52.38085841]}}
{"company":"postnl","name":"Gamma Markerkant","address":"Markerkant 10 142, 1316AL Almere","geometry":{"type":"Point","coordinates":[5.22033943,52.3881178]}}
{"company":"postnl","name":"Gamma","address":"Aletta Jacobslaan 5, 1066BP Amsterdam","geometry":{"type":"Point","coordinates":[4.83188005,52.34596619]}}
{"company":"postnl","name":"Gamma","address":"Franse Kampweg 12, 1406NW Bussum","geometry":{"type":"Point","coordinates":[5.14273144,52.26066501]}}
{"company":"postnl","name":"Gamma","address":"Klimopweg 65, 1032HZ Amsterdam","geometry":{"type":"Point","coordinates":[4.90854818,52.39922]}}
{"company":"postnl","name":"Gamma","address":"Lammenschansweg 130, 2321JX Leiden","geometry":{"type":"Point","coordinates":[4.4915442,52.14585483]}}
{"company":"postnl","name":"Gamma","address":"Samsonweg 9, 1521RA Wormerveer","geometry":{"type":"Point","coordinates":[4.77987708,52.50547516]}}
{"company":"postnl","name":"Gamma","address":"Sijsjesbergweg 10, 1105AL Amsterdam","geometry":{"type":"Point","coordinates":[4.94330887,52.29535838]}}
{"company":"postnl","name":"Gamma","address":"Spaklerweg 44 A, 1096BA Amsterdam","geometry":{"type":"Point","coordinates":[4.92042569,52.33730619]}}
{"company":"postnl","name":"Gamma","address":"Verlengde Zuiderloswal 30, 1216BX Hilversum","geometry":{"type":"Point","coordinates":[5.15090455,52.22313293]}}
{"company":"postnl","name":"Gebroeders Winter Amstelveen","address":"Karel Doormanweg 18, 1181WE Amstelveen","geometry":{"type":"Point","coordinates":[4.87013729,52.30510511]}}
{"company":"postnl","name":"Gebroeders Winter Amstelveenseweg","address":"Amstelveenseweg 77, 1075VW Amsterdam","geometry":{"type":"Point","coordinates":[4.85611381,52.35335685]}}
{"company":"postnl","name":"Gebroeders Winter Beethovenstraat","address":"Beethovenstraat 3, 1077HK Amsterdam","geometry":{"type":"Point","coordinates":[4.87868162,52.35013049]}}
{"company":"postnl","name":"Gebroeders Winter Ceintuurbaan","address":"Ceintuurbaan 131, 1072GA Amsterdam","geometry":{"type":"Point","coordinates":[4.89298684,52.35320198]}}
{"company":"postnl","name":"Gebroeders Winter Lijnbaansgracht","address":"Lijnbaansgracht 204, 1016XA Amsterdam","geometry":{"type":"Point","coordinates":[4.87915108,52.368099]}}
{"company":"postnl","name":"Gebroeders Winter Linnaeusstraat","address":"Linnaeusstraat 58, 1092CM Amsterdam","geometry":{"type":"Point","coordinates":[4.92683707,52.35717622]}}
{"company":"postnl","name":"Gebroeders Winter Rozengracht","address":"Rozengracht 62, 1016NE Amsterdam","geometry":{"type":"Point","coordinates":[4.88060135,52.3735338]}}
{"company":"postnl","name":"Gebroeders Winter Singel","address":"Singel 250 SOUS, 1016AB Amsterdam","geometry":{"type":"Point","coordinates":[4.88827164,52.37292852]}}
{"company":"postnl","name":"Gebroeders Winter Vijzelgracht","address":"Vijzelgracht 57, 1017HP Amsterdam","geometry":{"type":"Point","coordinates":[4.89146353,52.36079923]}}
{"company":"postnl","name":"Gemakswinkel aan de Amstel","address":"Kerkstraat 29, 1191JC Ouderkerk aan de Amstel","geometry":{"type":"Point","coordinates":[4.90280657,52.29623623]}}
{"company":"postnl","name":"Global Mail BV","address":"Netwerk 19, 1446XB Purmerend","geometry":{"type":"Point","coordinates":[5.00386896,52.51092686]}}
{"company":"postnl","name":"Glory tabakspeciaalzaak","address":"Amsterdamsestraatweg 254, 3551CR Utrecht","geometry":{"type":"Point","coordinates":[5.10000634,52.10053339]}}
{"company":"postnl","name":"Green Budget Bikes 2 B.V.","address":"Nieuwezijds Voorburgwal 101, 1012RG Amsterdam","geometry":{"type":"Point","coordinates":[4.8918234,52.3745879]}}
{"company":"postnl","name":"H-Shop Amsterdam Noord","address":"Berberisstraat 36, 1032EM Amsterdam","geometry":{"type":"Point","coordinates":[4.9139213,52.39277048]}}
{"company":"postnl","name":"H-Shop Amsterdam","address":"Admiraal De Ruijterweg 462, 1055NG Amsterdam","geometry":{"type":"Point","coordinates":[4.84804839,52.38414835]}}
{"company":"postnl","name":"Happy GSM","address":"Jan Evertsenstraat 104 H, 1056EH AMSTERDAM","geometry":{"type":"Point","coordinates":[4.85298455,52.37066217]}}
{"company":"postnl","name":"Het Stalen Paard","address":"Biltstraat 52, 3572BD Utrecht","geometry":{"type":"Point","coordinates":[5.12881446,52.09529183]}}
{"company":"postnl","name":"Himchuli Tabakshop","address":"Eerste Oosterparkstraat 172, 1091HJ Amsterdam","geometry":{"type":"Point","coordinates":[4.91485784,52.35726385]}}
{"company":"postnl","name":"Hobbywinkel het Kralendorp","address":"Quirinegang 47, 2719CG Zoetermeer","geometry":{"type":"Point","coordinates":[4.47733646,52.04350613]}}
{"company":"postnl","name":"Hoogvliet Cadenza","address":"Oostwaarts 109, 2711BA Zoetermeer","geometry":{"type":"Point","coordinates":[4.49455165,52.06204122]}}
{"company":"postnl","name":"Hoogvliet Groest","address":"Groest 7, 1211CX Hilversum","geometry":{"type":"Point","coordinates":[5.17849027,52.22646685]}}
{"company":"postnl","name":"Hoogvliet Levendaal","address":"Levendaal 20, 2311JL Leiden","geometry":{"type":"Point","coordinates":[4.49383063,52.15518058]}}
{"company":"postnl","name":"Hoogvliet Mijdrecht","address":"Kerkvaart 7, 3641EN Mijdrecht","geometry":{"type":"Point","coordinates":[4.86515628,52.20882325]}}
{"company":"postnl","name":"Hoogvliet Supermarkt","address":"Dorpsstraat 88, 2712AM Zoetermeer","geometry":{"type":"Point","coordinates":[4.49801464,52.05600487]}}
{"company":"postnl","name":"Hoogvliet","address":"Aalsmeerderweg 207, 1432CL Aalsmeer","geometry":{"type":"Point","coordinates":[4.78774033,52.27829193]}}
{"company":"postnl","name":"Hoogvliet","address":"Admiraal de Ruyterlaan 16 A, 1215NA Hilversum","geometry":{"type":"Point","coordinates":[5.15652162,52.21064701]}}
{"company":"postnl","name":"Hoogvliet","address":"Kennedylaan 118, 2324EZ Leiden","geometry":{"type":"Point","coordinates":[4.47168166,52.14103495]}}
{"company":"postnl","name":"Hoogvliet","address":"Seinstraat 3, 1223DE Hilversum","geometry":{"type":"Point","coordinates":[5.1921017,52.23236291]}}
{"company":"postnl","name":"Hoogvliet","address":"Van Stolberglaan 23, 2713ES Zoetermeer","geometry":{"type":"Point","coordinates":[4.48466285,52.05316554]}}
{"company":"postnl","name":"Hydro Schagen Techniek","address":"de Langeloop 10 H, 1742PB Schagen","geometry":{"type":"Point","coordinates":[4.77927873,52.79613564]}}
{"company":"postnl","name":"Ilyas Tabak en Gemakswinkel","address":"Eerste Oosterparkstraat 152, 1091HH Amsterdam","geometry":{"type":"Point","coordinates":[4.9139207,52.3570444]}}
{"company":"postnl","name":"Inktland","address":"Lepelaarstraat 2 A, 6601DJ Wijchen","geometry":{"type":"Point","coordinates":[5.72752181,51.81451232]}}
{"company":"postnl","name":"Intratuin Almere","address":"Euphoniumweg 5, 1312XK Almere","geometry":{"type":"Point","coordinates":[5.17573734,52.37510962]}}
{"company":"postnl","name":"Intratuin Beemster","address":"Purmerenderweg 75, 1461DE Zuidoostbeemster","geometry":{"type":"Point","coordinates":[4.94736877,52.52378812]}}
{"company":"postnl","name":"Intratuin Voorschoten","address":"Leidseweg 518, 2253JP Voorschoten","geometry":{"type":"Point","coordinates":[4.46445848,52.14690449]}}
{"company":"postnl","name":"Intratuin Zoetermeer","address":"Voorweg 192, 2716NK Zoetermeer","geometry":{"type":"Point","coordinates":[4.45372962,52.06502762]}}
{"company":"postnl","name":"Iso Tabak","address":"Jan Evertsenstraat 95 H, 1057BS Amsterdam","geometry":{"type":"Point","coordinates":[4.85336945,52.37040326]}}
{"company":"postnl","name":"J&J African Market","address":"Enschedepad 67, 1324GC Almere","geometry":{"type":"Point","coordinates":[5.21028266,52.36559907]}}
{"company":"postnl","name":"Jack's E-Cigarettes & More","address":"Westermarkt 7 H, 1016DH Amsterdam","geometry":{"type":"Point","coordinates":[4.88443032,52.37386469]}}
{"company":"postnl","name":"Jan Linders","address":"Homberg 2527, 6601XW Wijchen","geometry":{"type":"Point","coordinates":[5.71205806,51.81187762]}}
{"company":"postnl","name":"Jumbo (3125) Leiden","address":"Diamantplein 55 -56, 2332HT Leiden","geometry":{"type":"Point","coordinates":[4.46529778,52.1567469]}}
{"company":"postnl","name":"Jumbo (3725) Uithoorn","address":"Zijdelwaardplein 60, 1422DN Uithoorn","geometry":{"type":"Point","coordinates":[4.82760111,52.24662264]}}
{"company":"postnl","name":"Jumbo (3766) Hilversum","address":"Stephensonlaan 45 -49, 1222NV Hilversum","geometry":{"type":"Point","coordinates":[5.17606646,52.23796453]}}
{"company":"postnl","name":"Jumbo (5112) Hatertseweg Nijmegen","address":"Hatertseweg 835, 6535ZT Nijmegen","geometry":{"type":"Point","coordinates":[5.8239708,51.80798769]}}
{"company":"postnl","name":"Jumbo (5791) Wijchen","address":"Herenstraat 17, 6602BA Wijchen","geometry":{"type":"Point","coordinates":[5.72490297,51.80951332]}}
{"company":"postnl","name":"Jumbo Almere Haven","address":"Jaagmeent 250, 1356AZ Almere","geometry":{"type":"Point","coordinates":[5.23188369,52.33669386]}}
{"company":"postnl","name":"Jumbo Brummen","address":"Ambachtstraat 38, 6971BR Brummen","geometry":{"type":"Point","coordinates":[6.15437585,52.08816672]}}
{"company":"postnl","name":"Jumbo Foodmarkt Amsterdam","address":"Gedempt Hamerkanaal 223, 1021KP Amsterdam","geometry":{"type":"Point","coordinates":[4.91976766,52.38326358]}}
{"company":"postnl","name":"Jumbo Jacobszstraat","address":"Hendrik Jacobszstraat 9, 1075PA Amsterdam","geometry":{"type":"Point","coordinates":[4.86046324,52.35172254]}}
{"company":"postnl","name":"Jumbo Kortenhoef","address":"Curtevenneweg 2, 1241XZ Kortenhoef","geometry":{"type":"Point","coordinates":[5.11380851,52.23995335]}}
{"company":"postnl","name":"Jumbo Zeist Laan van Vollenhove","address":"Laan van Vollenhove 3001, 3706AL Zeist","geometry":{"type":"Point","coordinates":[5.22107307,52.10012997]}}
{"company":"postnl","name":"Jumbo haven","address":"Geinplein 34 -37, 1316HC Almere","geometry":{"type":"Point","coordinates":[5.22411057,52.38490663]}}
{"company":"postnl","name":"Jumbo van der Hoek","address":"Kerkstraat 37, 3295BD 's-Gravendeel","geometry":{"type":"Point","coordinates":[4.61555102,51.77846101]}}
{"company":"postnl","name":"Jumbo","address":"Buitenveldertselaan 184, 1081AC Amsterdam","geometry":{"type":"Point","coordinates":[4.86810511,52.32455027]}}
{"company":"postnl","name":"Jumbo","address":"Engelenburg 70, 2036RS Haarlem","geometry":{"type":"Point","coordinates":[4.65385346,52.35187122]}}
{"company":"postnl","name":"Jumbo","address":"Kastelenstraat 70, 1083CD Amsterdam","geometry":{"type":"Point","coordinates":[4.8831505,52.32624212]}}
{"company":"postnl","name":"Jumbo","address":"Larenseweg 155, 1221CL Hilversum","geometry":{"type":"Point","coordinates":[5.18846018,52.23286052]}}
{"company":"postnl","name":"Jumbo","address":"Malvert 7023, 6538DP Nijmegen","geometry":{"type":"Point","coordinates":[5.8079951,51.808912]}}
{"company":"postnl","name":"Jumbo","address":"Middelwaard 52, 2716CW Zoetermeer","geometry":{"type":"Point","coordinates":[4.46867989,52.05554337]}}
{"company":"postnl","name":"Jumbo","address":"Nootweg 45, 1231CR Loosdrecht","geometry":{"type":"Point","coordinates":[5.13878838,52.2000549]}}
{"company":"postnl","name":"Jumbo","address":"Plein 1945 3, 1251MA Laren (NH)","geometry":{"type":"Point","coordinates":[5.22974268,52.25475026]}}
{"company":"postnl","name":"Jumbo","address":"Vivaldipassage 5, 6371LL Landgraaf","geometry":{"type":"Point","coordinates":[6.02417307,50.90607946]}}
{"company":"postnl","name":"KARWEI Amsterdam-Noord","address":"Klaprozenweg 31, 1032KK Amsterdam","geometry":{"type":"Point","coordinates":[4.90859523,52.39758444]}}
{"company":"postnl","name":"KARWEI Huizen","address":"Warandebergstraat 45, 1271ZC Huizen","geometry":{"type":"Point","coordinates":[5.23701441,52.30454763]}}
{"company":"postnl","name":"KARWEI Landgraaf","address":"Havikweg 6, 6374AZ Landgraaf","geometry":{"type":"Point","coordinates":[6.02750018,50.9172545]}}
{"company":"postnl","name":"KARWEI","address":"Daniël Goedkoopstraat 31 E, 1096BD Amsterdam","geometry":{"type":"Point","coordinates":[4.92199736,52.33631299]}}
{"company":"postnl","name":"Kadoshop Ieniemienie","address":"Raadhuisstraat 35, 1474HH Oosthuizen","geometry":{"type":"Point","coordinates":[4.99479044,52.57287326]}}
{"company":"postnl","name":"Kadowinkel De Kast","address":"Lingerzijde 10, 1135AP Edam","geometry":{"type":"Point","coordinates":[5.04672124,52.51222988]}}
{"company":"postnl","name":"Kai's Office & Gifts","address":"Meibergdreef 9, 1105AZ Amsterdam","geometry":{"type":"Point","coordinates":[4.95820415,52.2951617]}}
{"company":"postnl","name":"Kantoorboekhandel Brugman","address":"Alexander Boersstraat 25 C, 1071KV Amsterdam","geometry":{"type":"Point","coordinates":[4.87748853,52.35816939]}}
{"company":"postnl","name":"Kartent BV","address":"Keienbergweg 38 A, 1101GC AMSTERDAM","geometry":{"type":"Point","coordinates":[4.93273602,52.30863816]}}
{"company":"postnl","name":"Karwei","address":"2e Loswal 4, 1216BC Hilversum","geometry":{"type":"Point","coordinates":[5.14604367,52.22307101]}}
{"company":"postnl","name":"Karwei","address":"De Marne 102, 8701MC Bolsward","geometry":{"type":"Point","coordinates":[5.50420133,53.06369198]}}
{"company":"postnl","name":"Karwei","address":"De Nieuwe Vaart 4 -18, 1401GP Bussum","geometry":{"type":"Point","coordinates":[5.16476825,52.28449957]}}
{"company":"postnl","name":"Karwei","address":"Neckerstraat 14, 1456BD Wijdewormer","geometry":{"type":"Point","coordinates":[4.93257881,52.51055469]}}
{"company":"postnl","name":"Karwei","address":"Nijverheidslaan 1 B, 1382LE Weesp","geometry":{"type":"Point","coordinates":[5.05011448,52.3121938]}}
{"company":"postnl","name":"Karwei","address":"Stormhoek 21, 1506SW Zaandam","geometry":{"type":"Point","coordinates":[4.82067994,52.42815016]}}
{"company":"postnl","name":"Kolu Trans BV","address":"Fabriekweg 16, 1525RB Westknollendam","geometry":{"type":"Point","coordinates":[4.77898172,52.5170181]}}
{"company":"postnl","name":"Kringloop Stedendreef","address":"Vlaardingenstraat 10, 1324LC Almere","geometry":{"type":"Point","coordinates":[5.20044808,52.3625671]}}
{"company":"postnl","name":"Kringloopwinkel","address":"Vogelzankweg 179 A, 6374AC Landgraaf","geometry":{"type":"Point","coordinates":[6.02712168,50.91936585]}}
{"company":"postnl","name":"L'art Pour Vous","address":"Haarlemmerdijk 56, 1013JE Amsterdam","geometry":{"type":"Point","coordinates":[4.88781443,52.38240834]}}
{"company":"postnl","name":"L'art Pour Vous","address":"Raadhuisstraat 12 H, 1016DE Amsterdam","geometry":{"type":"Point","coordinates":[4.8882091,52.37344027]}}
{"company":"postnl","name":"La Coppelia's Shop","address":"Marie Curielaan 1, 1341BA Almere","geometry":{"type":"Point","coordinates":[5.28372926,52.35751667]}}
{"company":"postnl","name":"La Famiglia Rookwaren","address":"Hoofdweg 386, 1056DD Amsterdam","geometry":{"type":"Point","coordinates":[4.84930549,52.37254193]}}
{"company":"postnl","name":"Lloyd Hotel B.V.","address":"Oostelijke Handelskade 34, 1019BN Amsterdam","geometry":{"type":"Point","coordinates":[4.93488317,52.37427488]}}
{"company":"postnl","name":"MG Boekhandel","address":"Pieter Calandlaan 98, 1068NP Amsterdam","geometry":{"type":"Point","coordinates":[4.81164917,52.35484769]}}
{"company":"postnl","name":"Meer dan Tabak","address":"Hoofddorpplein 25 H, 1059CW Amsterdam","geometry":{"type":"Point","coordinates":[4.8492436,52.35100698]}}
{"company":"postnl","name":"Meester Schoenmaker Hillie's Sleute","address":"Javastraat 85 -87, 1094HB Amsterdam","geometry":{"type":"Point","coordinates":[4.93504211,52.36385875]}}
{"company":"postnl","name":"Melker Rijwielen","address":"Akerhof 5, 1921DZ Akersloot","geometry":{"type":"Point","coordinates":[4.73428791,52.56296398]}}
{"company":"postnl","name":"Meso Trada","address":"Van Woustraat 44 H, 1073LM Amsterdam","geometry":{"type":"Point","coordinates":[4.89985133,52.35631323]}}
{"company":"postnl","name":"Mobi-land","address":"Globeplein 64, 1334BW Almere","geometry":{"type":"Point","coordinates":[5.27979661,52.39371196]}}
{"company":"postnl","name":"Moiz Telecom","address":"Eerste Van Swindenstraat 467, 1093GB Amsterdam","geometry":{"type":"Point","coordinates":[4.92910928,52.36316187]}}
{"company":"postnl","name":"Na Nes 2 Go","address":"De Weer 30, 1504AH Zaandam","geometry":{"type":"Point","coordinates":[4.84427207,52.43830589]}}
{"company":"postnl","name":"Nandan Shipping","address":"Eerste Van Swindenstraat 385, 1093GB Amsterdam","geometry":{"type":"Point","coordinates":[4.92808377,52.36295118]}}
{"company":"postnl","name":"Next Level Cakes","address":"Molenstraat 36, 1741GK Schagen","geometry":{"type":"Point","coordinates":[4.80321682,52.78779502]}}
{"company":"postnl","name":"Nicecopymail","address":"Asterweg 14, 1031HN Amsterdam","geometry":{"type":"Point","coordinates":[4.90475795,52.38971365]}}
{"company":"postnl","name":"Office Centre","address":"Calandstraat 7, 3316EA Dordrecht","geometry":{"type":"Point","coordinates":[4.64646369,51.77975382]}}
{"company":"postnl","name":"Office Centre","address":"De Flinesstraat 1, 1114AL Amsterdam-Duivendrecht","geometry":{"type":"Point","coordinates":[4.92888245,52.32600355]}}
{"company":"postnl","name":"Office Centre","address":"De Strubbenweg 27, 1327GB Almere","geometry":{"type":"Point","coordinates":[5.26279934,52.35958999]}}
{"company":"postnl","name":"Office Centre","address":"Nieuwenhuizenweg 21, 2314XP Leiden","geometry":{"type":"Point","coordinates":[4.5059669,52.14538054]}}
{"company":"postnl","name":"Office Centre","address":"Vreelandseweg 5, 1216CG Hilversum","geometry":{"type":"Point","coordinates":[5.14882052,52.21993961]}}
{"company":"postnl","name":"Office Centre","address":"Zekeringstraat 49, 1014BP Amsterdam","geometry":{"type":"Point","coordinates":[4.84779742,52.39632555]}}
{"company":"postnl","name":"Ottenhoff Motoren Garage Ottenhoff","address":"Sloterweg 218 -220, 1171CX Badhoevedorp","geometry":{"type":"Point","coordinates":[4.77593024,52.33520086]}}
{"company":"postnl","name":"Pachara Nails","address":"Vooruitstraat 29, 1441GE Purmerend","geometry":{"type":"Point","coordinates":[4.9454393,52.50666071]}}
{"company":"postnl","name":"Pagina Plukker","address":"Makado Centrum 16, 1741JA Schagen","geometry":{"type":"Point","coordinates":[4.79827856,52.78764323]}}
{"company":"postnl","name":"Pakket- en Briefautomaat","address":"'s-Hertogenboschplein 8 PBA, 1324WB Almere","geometry":{"type":"Point","coordinates":[5.2048694,52.35947054]}}
{"company":"postnl","name":"Pakket- en Briefautomaat","address":"Alseïdenstraat 22 PBA, 1363SR Almere","geometry":{"type":"Point","coordinates":[5.15435118,52.35757394]}}
{"company":"postnl","name":"Pakket- en Briefautomaat","address":"Boelijn 195 PBA, 1319DP Almere","geometry":{"type":"Point","coordinates":[5.1754779,52.39449344]}}
{"company":"postnl","name":"Pakket- en Briefautomaat","address":"Boomgaardlaan 100 PBA, 1036KJ Amsterdam","geometry":{"type":"Point","coordinates":[4.90316408,52.40711769]}}
{"company":"postnl","name":"Pakket- en Briefautomaat","address":"Botplein 2 PBA, 1317SL Almere","geometry":{"type":"Point","coordinates":[5.23121377,52.3891872]}}
{"company":"postnl","name":"Pakket- en Briefautomaat","address":"Brugplein 11 PBA, 1332BS Almere","geometry":{"type":"Point","coordinates":[5.25190111,52.40703901]}}
{"company":"postnl","name":"Pakket- en Briefautomaat","address":"De Steiger 4 PBA, 1351AA Almere","geometry":{"type":"Point","coordinates":[5.21868548,52.35086007]}}
{"company":"postnl","name":"Pakket- en Briefautomaat","address":"Hoge Rijndijk 5 PBA, 2313KE Leiden","geometry":{"type":"Point","coordinates":[4.50493415,52.15517283]}}
{"company":"postnl","name":"Pakket- en Briefautomaat","address":"James Wattstraat 84 PBA, 1097DM Amsterdam","geometry":{"type":"Point","coordinates":[4.91962026,52.34969711]}}
{"company":"postnl","name":"Pakket- en Briefautomaat","address":"Juan Grisstraat 44 PBA, 1328KA Almere","geometry":{"type":"Point","coordinates":[5.26582089,52.37194583]}}
{"company":"postnl","name":"Pakket- en Briefautomaat","address":"Koningsbeltweg 1 PBA, 1329AA Almere","geometry":{"type":"Point","coordinates":[5.27479464,52.37511577]}}
{"company":"postnl","name":"Pakket- en Briefautomaat","address":"Lavendelplantsoen 68 PBA, 1313GA Almere","geometry":{"type":"Point","coordinates":[5.19789318,52.38223061]}}
{"company":"postnl","name":"Pakket- en Briefautomaat","address":"Meerkoetlaan 1 PBA, 1343AW Almere","geometry":{"type":"Point","coordinates":[5.30550512,52.3369005]}}
{"company":"postnl","name":"Pakket- en Briefautomaat","address":"Prozastraat 121 PBA, 1321GZ Almere","geometry":{"type":"Point","coordinates":[5.18214653,52.35811033]}}
{"company":"postnl","name":"Pakket- en Briefautomaat","address":"Regenboogweg 43 PBA, 1339ET Almere","geometry":{"type":"Point","coordinates":[5.29374436,52.39546673]}}
{"company":"postnl","name":"Pakket- en Briefautomaat","address":"Rode Katerplaats 1 PBA, 1336LC Almere","geometry":{"type":"Point","coordinates":[5.3211048,52.40065787]}}
{"company":"postnl","name":"Pakket- en Briefautomaat","address":"Salsastraat 81 PBA, 1326PC Almere","geometry":{"type":"Point","coordinates":[5.25639155,52.36578799]}}
{"company":"postnl","name":"Pakket- en Briefautomaat","address":"Teleportboulevard 100 PBA, 1043EJ Amsterdam","geometry":{"type":"Point","coordinates":[4.83929663,52.38751453]}}
{"company":"postnl","name":"Pakket- en Briefautomaat","address":"Walt Disneyplantsoen 76 PBA, 1325SX Almere","geometry":{"type":"Point","coordinates":[5.24226874,52.35956077]}}
{"company":"postnl","name":"Pakket- en Briefautomaat","address":"Wezelstraat 2 PBA, 1338BG Almere","geometry":{"type":"Point","coordinates":[5.26956666,52.3861325]}}
{"company":"postnl","name":"Pets 4 fun","address":"De Paal 108, 1351JJ Almere","geometry":{"type":"Point","coordinates":[5.21870597,52.34649909]}}
{"company":"postnl","name":"Phone Like","address":"Marktstraat 33, 1521DW Wormerveer","geometry":{"type":"Point","coordinates":[4.78935497,52.49295872]}}
{"company":"postnl","name":"Phonecorner","address":"Vijf Meiplein 33, 2321BN Leiden","geometry":{"type":"Point","coordinates":[4.47895128,52.14740798]}}
{"company":"postnl","name":"Plantage","address":"Overtoom 8 A, 1054HH Amsterdam","geometry":{"type":"Point","coordinates":[4.8780409,52.36376214]}}
{"company":"postnl","name":"Plus De Bongerd","address":"Boomgaardlaan 100, 1036KJ Amsterdam","geometry":{"type":"Point","coordinates":[4.90316408,52.40711769]}}
{"company":"postnl","name":"Plus Lammenschans","address":"Bètaplein 22, 2321KS Leiden","geometry":{"type":"Point","coordinates":[4.493498,52.14591646]}}
{"company":"postnl","name":"Plus Wetzels","address":"Hovenstraat 128, 6374HG Landgraaf","geometry":{"type":"Point","coordinates":[6.05107926,50.91549646]}}
{"company":"postnl","name":"Plus","address":"Adriaen van Ostadelaan 40, 3583AJ Utrecht","geometry":{"type":"Point","coordinates":[5.14071753,52.08266736]}}
{"company":"postnl","name":"Plus","address":"E. de Bruynstraat 78, 1411TC Naarden","geometry":{"type":"Point","coordinates":[5.14599284,52.29857879]}}
{"company":"postnl","name":"Plus","address":"Mackaylaan 48 -54, 1412CR Naarden","geometry":{"type":"Point","coordinates":[5.14927897,52.28455968]}}
{"company":"postnl","name":"Plus","address":"Meistraat 102, 1335BM Almere","geometry":{"type":"Point","coordinates":[5.28705092,52.40373118]}}
{"company":"postnl","name":"Plusmarkt","address":"Voorstraat 61 A, 3512AK Utrecht","geometry":{"type":"Point","coordinates":[5.12136905,52.09504751]}}
{"company":"postnl","name":"Poiesz Supermarkt (103)","address":"Peter van Thaborplein 4, 8701EW Bolsward","geometry":{"type":"Point","coordinates":[5.5194857,53.06456637]}}
{"company":"postnl","name":"Point Fumee","address":"Zuideinde 9, 1334BX Almere","geometry":{"type":"Point","coordinates":[5.27991967,52.39348893]}}
{"company":"postnl","name":"Post & Office","address":"Koningin Wilhelminaplein 17, 1062HJ Amsterdam","geometry":{"type":"Point","coordinates":[4.84143284,52.35305882]}}
{"company":"postnl","name":"Post & Office","address":"Schoutenstraat 4, 1211BM Hilversum","geometry":{"type":"Point","coordinates":[5.17295972,52.2254445]}}
{"company":"postnl","name":"Primera Admiraal de Ruijterweg","address":"Admiraal De Ruijterweg 87, 1056ET Amsterdam","geometry":{"type":"Point","coordinates":[4.85928692,52.37164314]}}
{"company":"postnl","name":"Primera Amsterdamse Poort","address":"Bijlmerplein 993, 1102MK Amsterdam","geometry":{"type":"Point","coordinates":[4.95082796,52.31337095]}}
{"company":"postnl","name":"Primera Assendelft","address":"Kaaikhof 28, 1567JP Assendelft","geometry":{"type":"Point","coordinates":[4.7525675,52.48831413]}}
{"company":"postnl","name":"Primera Bolsward","address":"Nieuwmarkt 13, 8701KK Bolsward","geometry":{"type":"Point","coordinates":[5.52149691,53.06246574]}}
{"company":"postnl","name":"Primera Bos en Lommer","address":"Bos en Lommerweg 277, 1055DW Amsterdam","geometry":{"type":"Point","coordinates":[4.84992333,52.37851258]}}
{"company":"postnl","name":"Primera Bosman","address":"Marktplein 13 -14, 6971AB Brummen","geometry":{"type":"Point","coordinates":[6.15741082,52.08796703]}}
{"company":"postnl","name":"Primera Diamantplein","address":"Diamantplein 54, 2332HT Leiden","geometry":{"type":"Point","coordinates":[4.4645302,52.15672277]}}
{"company":"postnl","name":"Primera Dijkgraafplein","address":"Dijkgraafplein 32, 1069EW Amsterdam","geometry":{"type":"Point","coordinates":[4.78644407,52.35607061]}}
{"company":"postnl","name":"Primera Heijm","address":"Stadionweg 139, 1076NM Amsterdam","geometry":{"type":"Point","coordinates":[4.8653002,52.34604572]}}
{"company":"postnl","name":"Primera Kinkerstraat","address":"Kinkerstraat 180, 1053EK Amsterdam","geometry":{"type":"Point","coordinates":[4.86777989,52.36615325]}}
{"company":"postnl","name":"Primera L & A","address":"Nova Zemblastraat 565, 1013RJ Amsterdam","geometry":{"type":"Point","coordinates":[4.87877455,52.39070146]}}
{"company":"postnl","name":"Primera Middenweg","address":"Middenweg 49, 1098AC Amsterdam","geometry":{"type":"Point","coordinates":[4.92993445,52.35432115]}}
{"company":"postnl","name":"Primera Mika","address":"Leeuwerikplein 4, 1444HW Purmerend","geometry":{"type":"Point","coordinates":[4.96132302,52.52076253]}}
{"company":"postnl","name":"Primera Mosveld","address":"Mosveld 103, 1031AD Amsterdam","geometry":{"type":"Point","coordinates":[4.91396214,52.39091945]}}
{"company":"postnl","name":"Primera Parkwijk","address":"Haagbeukweg 50, 1326CP Almere","geometry":{"type":"Point","coordinates":[5.243313,52.37570026]}}
{"company":"postnl","name":"Primera Rijnstraat","address":"Rijnstraat 59, 1078PZ Amsterdam","geometry":{"type":"Point","coordinates":[4.90535737,52.34671889]}}
{"company":"postnl","name":"Primera Seinhorst","address":"Jan van der Heijdenstr 41 A, 1223BG Hilversum","geometry":{"type":"Point","coordinates":[5.19149107,52.23200533]}}
{"company":"postnl","name":"Primera Van Vuure","address":"Waterlandplein 260, 1024NB Amsterdam","geometry":{"type":"Point","coordinates":[4.95479854,52.39235547]}}
{"company":"postnl","name":"Primera Verveen","address":"Heiligeweg 33, 1561DD Krommenie","geometry":{"type":"Point","coordinates":[4.76621825,52.5006141]}}
{"company":"postnl","name":"Primera Weesp","address":"Amstellandlaan 12, 1382CE Weesp","geometry":{"type":"Point","coordinates":[5.03407333,52.31053906]}}
{"company":"postnl","name":"Primera Zoetermeer Stadshart","address":"Noordwaarts 220, 2711HP Zoetermeer","geometry":{"type":"Point","coordinates":[4.49137028,52.06195899]}}
{"company":"postnl","name":"Primera Zwanenburg","address":"Dennenlaan 50, 1161CS Zwanenburg","geometry":{"type":"Point","coordinates":[4.75070836,52.37879218]}}
{"company":"postnl","name":"Primera de Jong","address":"Zijdelwaardplein 91, 1422DL Uithoorn","geometry":{"type":"Point","coordinates":[4.82724837,52.24568499]}}
{"company":"postnl","name":"Primera de Pijp","address":"Raadhuisstraat 30, 2101HH Heemstede","geometry":{"type":"Point","coordinates":[4.62087078,52.34822017]}}
{"company":"postnl","name":"Primera in de Banne","address":"Bezaanjachtplein 271, 1034CR Amsterdam","geometry":{"type":"Point","coordinates":[4.91698878,52.40780183]}}
{"company":"postnl","name":"Primera","address":"'t Spil 44, 1141SH Monnickendam","geometry":{"type":"Point","coordinates":[5.03733633,52.44989242]}}
{"company":"postnl","name":"Primera","address":"Beukenplein 6, 1091KG Amsterdam","geometry":{"type":"Point","coordinates":[4.91752812,52.35739131]}}
{"company":"postnl","name":"Primera","address":"Brink 34, 1188NC Amstelveen","geometry":{"type":"Point","coordinates":[4.85152844,52.2814089]}}
{"company":"postnl","name":"Primera","address":"Buikslotermeerplein 100, 1025EX Amsterdam","geometry":{"type":"Point","coordinates":[4.93659313,52.39820655]}}
{"company":"postnl","name":"Primera","address":"Burg van Baarstraat 30, 1131WV Volendam","geometry":{"type":"Point","coordinates":[5.07130746,52.49976947]}}
{"company":"postnl","name":"Primera","address":"De Lindeboom 16, 3641EX Mijdrecht","geometry":{"type":"Point","coordinates":[4.86712193,52.20835869]}}
{"company":"postnl","name":"Primera","address":"Delflandplein 174, 1062HW Amsterdam","geometry":{"type":"Point","coordinates":[4.83988305,52.34952602]}}
{"company":"postnl","name":"Primera","address":"Diemerplein 52, 1111JD Diemen","geometry":{"type":"Point","coordinates":[4.96366503,52.34257278]}}
{"company":"postnl","name":"Primera","address":"E Constantijn Huygensstr 65, 1054BT Amsterdam","geometry":{"type":"Point","coordinates":[4.87527235,52.36321993]}}
{"company":"postnl","name":"Primera","address":"Ferdinand Bolstraat 25, 1072LB Amsterdam","geometry":{"type":"Point","coordinates":[4.89068068,52.35597853]}}
{"company":"postnl","name":"Primera","address":"Haarlemmerdijk 168, 1013JK Amsterdam","geometry":{"type":"Point","coordinates":[4.88496152,52.38401406]}}
{"company":"postnl","name":"Primera","address":"Hilvertshof 51, 1211ER Hilversum","geometry":{"type":"Point","coordinates":[5.17641557,52.22487514]}}
{"company":"postnl","name":"Primera","address":"Ina Boudier-Bakkerhof 4, 3582VX Utrecht","geometry":{"type":"Point","coordinates":[5.13446614,52.08231546]}}
{"company":"postnl","name":"Primera","address":"Karspeldreef 1313 -1315, 1104SE Amsterdam","geometry":{"type":"Point","coordinates":[4.97802722,52.31606867]}}
{"company":"postnl","name":"Primera","address":"Molenwijk 38, 1035EG Amsterdam","geometry":{"type":"Point","coordinates":[4.89301838,52.41727881]}}
{"company":"postnl","name":"Primera","address":"Noordeinde 161, 1334AP Almere","geometry":{"type":"Point","coordinates":[5.27758683,52.39497964]}}
{"company":"postnl","name":"Primera","address":"Poldermeesterplein 5, 1432JZ Aalsmeer","geometry":{"type":"Point","coordinates":[4.79476514,52.27464603]}}
{"company":"postnl","name":"Primera","address":"Sierplein 3, 1065LM Amsterdam","geometry":{"type":"Point","coordinates":[4.8264324,52.35586236]}}
{"company":"postnl","name":"Primera","address":"Stoepemaheerd 20 F, 9737TL Groningen","geometry":{"type":"Point","coordinates":[6.58867348,53.24648853]}}
{"company":"postnl","name":"Primera","address":"Van Damplein 18, 1448NB Purmerend","geometry":{"type":"Point","coordinates":[4.93891061,52.49640715]}}
{"company":"postnl","name":"Primera","address":"Van Limburg Stirumplein 1, 1051BD Amsterdam","geometry":{"type":"Point","coordinates":[4.8754254,52.38431476]}}
{"company":"postnl","name":"Primera","address":"Vrijheidsplein 58 -64, 3705PS Zeist","geometry":{"type":"Point","coordinates":[5.24506264,52.10137469]}}
{"company":"postnl","name":"Primera","address":"Waterlooplein 169, 1011PG Amsterdam","geometry":{"type":"Point","coordinates":[4.90243438,52.36844828]}}
{"company":"postnl","name":"Primera","address":"Willem Eggertstraat 27, 1441CH Purmerend","geometry":{"type":"Point","coordinates":[4.94699929,52.50840663]}}
{"company":"postnl","name":"Primera","address":"Wisseloord 97, 1106MA Amsterdam","geometry":{"type":"Point","coordinates":[4.98711436,52.29644043]}}
{"company":"postnl","name":"Primera","address":"Wormerplein 34, 1442CB Purmerend","geometry":{"type":"Point","coordinates":[4.95950207,52.5132169]}}
{"company":"postnl","name":"Printerette","address":"Voorstraat 39, 3512AJ Utrecht","geometry":{"type":"Point","coordinates":[5.12021597,52.09470316]}}
{"company":"postnl","name":"Quick Mobile Repair","address":"Buikslotermeerplein 290, 1025GB Amsterdam","geometry":{"type":"Point","coordinates":[4.93966536,52.3980654]}}
{"company":"postnl","name":"Quick Mobile Services","address":"Rooseveltstraat 41, 2321BL Leiden","geometry":{"type":"Point","coordinates":[4.48089998,52.14577629]}}
{"company":"postnl","name":"RAJA SPICES ASIAN SUPERMARKET","address":"Parlevinker 35, 1186ZB Amstelveen","geometry":{"type":"Point","coordinates":[4.8619484,52.2794904]}}
{"company":"postnl","name":"RF Tweewielers Huizen","address":"De Regentesse 96, 1273JZ Huizen","geometry":{"type":"Point","coordinates":[5.26175439,52.29427995]}}
{"company":"postnl","name":"Rijwielhandel Ferdi","address":"Italiëlaan 151 A, 2034BZ Haarlem","geometry":{"type":"Point","coordinates":[4.64932058,52.36170358]}}
{"company":"postnl","name":"SPACE@COM","address":"Hagedoornweg 44, 1031BS Amsterdam","geometry":{"type":"Point","coordinates":[4.9123783,52.39006801]}}
{"company":"postnl","name":"SPAR city Warmoesstraat","address":"Warmoesstraat 98 H, 1012JH Amsterdam","geometry":{"type":"Point","coordinates":[4.89677484,52.37447926]}}
{"company":"postnl","name":"Samtelecom","address":"Amsterdamsestraatweg 74, 3513AJ Utrecht","geometry":{"type":"Point","coordinates":[5.10696888,52.09649835]}}
{"company":"postnl","name":"Satellite World Communication","address":"Jan van Galenstraat 127 HUIS, 1056BL Amsterdam","geometry":{"type":"Point","coordinates":[4.85793164,52.37446822]}}
{"company":"postnl","name":"Secret Village Bikeshop","address":"Reguliersdwarsstraat 50 H, 1017BM Amsterdam","geometry":{"type":"Point","coordinates":[4.8917851,52.36618423]}}
{"company":"postnl","name":"Service Point Amsterdam CS","address":"De Ruijterkade 26 B, 1012AA Amsterdam","geometry":{"type":"Point","coordinates":[4.9011988,52.37933526]}}
{"company":"postnl","name":"Service Point Schiphol Plaza","address":"Aankomstpassage 4, 1118AX Schiphol","geometry":{"type":"Point","coordinates":[4.76210481,52.30950729]}}
{"company":"postnl","name":"Sigarenmagazijn 't Haasje","address":"Neuweg 196, 1214HB Hilversum","geometry":{"type":"Point","coordinates":[5.16770199,52.21337188]}}
{"company":"postnl","name":"Sigarenmagazijn Het Bommetje","address":"Reguliersbreestraat 49, 1017CM Amsterdam","geometry":{"type":"Point","coordinates":[4.89562909,52.36643393]}}
{"company":"postnl","name":"Sigarenwinkel Dam","address":"Raadhuisstraat 23, 1016DB Amsterdam","geometry":{"type":"Point","coordinates":[4.88663923,52.37331681]}}
{"company":"postnl","name":"Snoephaven Almere","address":"Marktgracht 7, 1353AH Almere","geometry":{"type":"Point","coordinates":[5.21863814,52.33594507]}}
{"company":"postnl","name":"Spar Byzantium","address":"Stadhouderskade 24 B, 1054ES AMSTERDAM","geometry":{"type":"Point","coordinates":[4.88104273,52.3618786]}}
{"company":"postnl","name":"Spar City Kinkerstraat","address":"Kinkerstraat 252 H, 1053GA Amsterdam","geometry":{"type":"Point","coordinates":[4.86502717,52.365512]}}
{"company":"postnl","name":"Spar Zeldenrust","address":"IJsselkade 45, 2314VM Leiden","geometry":{"type":"Point","coordinates":[4.51493971,52.15160324]}}
{"company":"postnl","name":"Spar city Science Park","address":"Carolina MacGillavrylaan 3192 -3196, 1098XK Amsterdam","geometry":{"type":"Point","coordinates":[4.94989516,52.3547301]}}
{"company":"postnl","name":"Spar","address":"Dorpsstraat 25, 1399GT Muiderberg","geometry":{"type":"Point","coordinates":[5.11664213,52.3272737]}}
{"company":"postnl","name":"Spar","address":"Herenstraat 47, 2313AE Leiden","geometry":{"type":"Point","coordinates":[4.48866983,52.15154361]}}
{"company":"postnl","name":"Spar","address":"Mr.C.Kooimancentrum 19, 1383ED Weesp","geometry":{"type":"Point","coordinates":[5.04288388,52.29842908]}}
{"company":"postnl","name":"Spar","address":"Rapenburg 91, 1011TW Amsterdam","geometry":{"type":"Point","coordinates":[4.91017943,52.37051994]}}
{"company":"postnl","name":"Stocks","address":"Grafterbaan 42 A, 1484ED Graft","geometry":{"type":"Point","coordinates":[4.83700997,52.56069942]}}
{"company":"postnl","name":"SuperCoop","address":"Uranuslaan 182, 1562XE Krommenie","geometry":{"type":"Point","coordinates":[4.75327793,52.50335877]}}
{"company":"postnl","name":"Supercoop 2182 Krommenie","address":"Heiligeweg 71 -73, 1561DG Krommenie","geometry":{"type":"Point","coordinates":[4.76389752,52.50122207]}}
{"company":"postnl","name":"Supermarkt Nigtevecht","address":"Klein Muiden 54, 1393RL Nigtevecht","geometry":{"type":"Point","coordinates":[5.02718585,52.27578465]}}
{"company":"postnl","name":"TAJ PLAZA","address":"Meijhorst 7031, 6537EP Nijmegen","geometry":{"type":"Point","coordinates":[5.80176927,51.81142133]}}
{"company":"postnl","name":"Tabac & Gifts","address":"Middelwaard 70 A, 2716CW Zoetermeer","geometry":{"type":"Point","coordinates":[4.46849351,52.05558114]}}
{"company":"postnl","name":"Tabak & Minimarkt Admiraal","address":"Admiraal De Ruijterweg 218, 1056HC Amsterdam","geometry":{"type":"Point","coordinates":[4.85806261,52.37703031]}}
{"company":"postnl","name":"Tabak Shop Sarah (786)","address":"Ceintuurbaan 224, 1072GE Amsterdam","geometry":{"type":"Point","coordinates":[4.88846185,52.35226625]}}
{"company":"postnl","name":"Tabak en Telefoon","address":"Nieuwe Nieuwstraat 12, 1012NH Amsterdam","geometry":{"type":"Point","coordinates":[4.89420837,52.3753708]}}
{"company":"postnl","name":"Tabakshop Linnaeus","address":"Linnaeusstraat 77, 1093EK Amsterdam","geometry":{"type":"Point","coordinates":[4.92575142,52.35994021]}}
{"company":"postnl","name":"Tabakshop Lisa","address":"Derkinderenstraat 64, 1062BJ Amsterdam","geometry":{"type":"Point","coordinates":[4.84074167,52.36204097]}}
{"company":"postnl","name":"Tabakshop Rex","address":"Dapperstraat 9, 1093BK Amsterdam","geometry":{"type":"Point","coordinates":[4.92632925,52.36508343]}}
{"company":"postnl","name":"Tabakshop van Vos","address":"Gibraltar 29, 1503BM Zaandam","geometry":{"type":"Point","coordinates":[4.84577578,52.44611467]}}
{"company":"postnl","name":"Tabakshuis Weesperplein","address":"Sarphatistraat 65, 1018EX Amsterdam","geometry":{"type":"Point","coordinates":[4.90699179,52.36114186]}}
{"company":"postnl","name":"Tabaksshop Lydia","address":"Kruisstraat 19, 1357NA Almere","geometry":{"type":"Point","coordinates":[5.2184699,52.33466026]}}
{"company":"postnl","name":"Tabaksspeciaalzaak De Geuzen","address":"Ruys de Beerenbrouckstr 139, 1067BS Amsterdam","geometry":{"type":"Point","coordinates":[4.80071835,52.38225168]}}
{"company":"postnl","name":"Tabaksspeciaalzaak Toko-Roko","address":"Jan van der Heijdenstr 25 -27, 1222HP Hilversum","geometry":{"type":"Point","coordinates":[5.18977451,52.23338252]}}
{"company":"postnl","name":"Tabakszaak Scario","address":"Prinsenstraat 23 C, 1015DB Amsterdam","geometry":{"type":"Point","coordinates":[4.88657342,52.37784633]}}
{"company":"postnl","name":"Tabakszaak Vespucci","address":"Vespuccistraat 32 H, 1057CM Amsterdam","geometry":{"type":"Point","coordinates":[4.85401582,52.37037921]}}
{"company":"postnl","name":"Tailors of Amsterdam","address":"Elandsgracht 41 H, 1016TN Amsterdam","geometry":{"type":"Point","coordinates":[4.88104305,52.3695721]}}
{"company":"postnl","name":"Tankstation Gulf Badhoevedorp","address":"Swammerdamstraat 2, 1171XJ Badhoevedorp","geometry":{"type":"Point","coordinates":[4.78295136,52.3410427]}}
{"company":"postnl","name":"Techador Koster","address":"Purmerplein 19, 1023BC Amsterdam","geometry":{"type":"Point","coordinates":[4.94446207,52.39149549]}}
{"company":"postnl","name":"Techador Menora","address":"Nieuwe Maanstraat 7 -9, 1033JK Amsterdam","geometry":{"type":"Point","coordinates":[4.88630463,52.41204329]}}
{"company":"postnl","name":"Techador Tabak Europa","address":"Europalaan 907, 1363BM Almere","geometry":{"type":"Point","coordinates":[5.15337048,52.34664989]}}
{"company":"postnl","name":"Techador","address":"Sperwerlaan 12 B, 1021EN Amsterdam","geometry":{"type":"Point","coordinates":[4.91450376,52.38498949]}}
{"company":"postnl","name":"The Health House B.V.","address":"Buikslotermeerplein 200 B, 1025GA Amsterdam","geometry":{"type":"Point","coordinates":[4.93847092,52.39849229]}}
{"company":"postnl","name":"The Read Shop VuMc","address":"De Boelelaan 1117, 1081HV Amsterdam","geometry":{"type":"Point","coordinates":[4.85982988,52.33461597]}}
{"company":"postnl","name":"The Read Shop","address":"Hoogstraat 32, 1391BV Abcoude","geometry":{"type":"Point","coordinates":[4.97399151,52.2706667]}}
{"company":"postnl","name":"The Read Shop","address":"Insulindeweg 478, 1094MH Amsterdam","geometry":{"type":"Point","coordinates":[4.93941867,52.36139478]}}
{"company":"postnl","name":"The Read Shop","address":"Marktstraat 3, 1354LE Almere","geometry":{"type":"Point","coordinates":[5.21904072,52.3357489]}}
{"company":"postnl","name":"The Read Shop","address":"Zijdelwaardplein 54, 1422AN Uithoorn","geometry":{"type":"Point","coordinates":[4.82814944,52.24669997]}}
{"company":"postnl","name":"The Readshop","address":"Rembrandthof 53, 1181ZL Amstelveen","geometry":{"type":"Point","coordinates":[4.85995485,52.30322772]}}
{"company":"postnl","name":"Top 1 Toys Zeist","address":"Voorheuvel 35, 3701JB Zeist","geometry":{"type":"Point","coordinates":[5.24000012,52.08747299]}}
{"company":"postnl","name":"Topkantoor Repro Creatief B.V.","address":"Huizerweg 26 A, 1402AB Bussum","geometry":{"type":"Point","coordinates":[5.16885922,52.2738527]}}
{"company":"postnl","name":"U-stal","address":"Mariaplaats 2, 3511LH Utrecht","geometry":{"type":"Point","coordinates":[5.11838225,52.08989619]}}
{"company":"postnl","name":"Used Products Amstelveen","address":"Amsterdamseweg 207, 1182GW Amstelveen","geometry":{"type":"Point","coordinates":[4.84667518,52.31180635]}}
{"company":"postnl","name":"Utrecht CS Service Point-Spoor 1-4","address":"Stationshal 18 A, 3511CE Utrecht","geometry":{"type":"Point","coordinates":[5.11127454,52.08948452]}}
{"company":"postnl","name":"Van der Sluys-Pauw VOF","address":"De Clomp 3310, 3704KB Zeist","geometry":{"type":"Point","coordinates":[5.2190557,52.08337869]}}
{"company":"postnl","name":"Vaperoutlet","address":"Kinkerstraat 152, 1053EH Amsterdam","geometry":{"type":"Point","coordinates":[4.86859943,52.36638153]}}
{"company":"postnl","name":"Vin Village","address":"Columbusplein 235, 1057TX Amsterdam","geometry":{"type":"Point","coordinates":[4.85486586,52.36561953]}}
{"company":"postnl","name":"Vivant Diana","address":"Dorpsplein 55, 1115CW Duivendrecht","geometry":{"type":"Point","coordinates":[4.93894795,52.33246226]}}
{"company":"postnl","name":"Vivant Jenny's Tabaks-Gemakswinkel","address":"Alseïdenstraat 20 -15, 1363SR Almere","geometry":{"type":"Point","coordinates":[5.15416123,52.35698342]}}
{"company":"postnl","name":"Vivant Mundo","address":"Hoofdweg 311, 1056CM Amsterdam","geometry":{"type":"Point","coordinates":[4.84992223,52.37011804]}}
{"company":"postnl","name":"Vivant Pelle","address":"Johan Huizingalaan 73, 1065HW Amsterdam","geometry":{"type":"Point","coordinates":[4.82746636,52.36349788]}}
{"company":"postnl","name":"Vivant Prime","address":"Slotermeerlaan 93, 1064HA Amsterdam","geometry":{"type":"Point","coordinates":[4.81957369,52.37794856]}}
{"company":"postnl","name":"Vivant Robben","address":"Zuiderpoort 7, 6605HM Wijchen","geometry":{"type":"Point","coordinates":[5.72461657,51.79983719]}}
{"company":"postnl","name":"Vivant Smit","address":"Faunastraat 72, 1531WH Wormer","geometry":{"type":"Point","coordinates":[4.8125313,52.49925778]}}
{"company":"postnl","name":"Vivant de Jordaan","address":"Westerstraat 114, 1015MN Amsterdam","geometry":{"type":"Point","coordinates":[4.88343694,52.37857901]}}
{"company":"postnl","name":"Vivant","address":"Harriet Freezerstraat 106, 1103JP Amsterdam","geometry":{"type":"Point","coordinates":[4.9725021,52.32284113]}}
{"company":"postnl","name":"Vivant","address":"IJburglaan 1283, 1087GJ Amsterdam","geometry":{"type":"Point","coordinates":[4.99667269,52.35477583]}}
{"company":"postnl","name":"Vivant","address":"Oosterengweg 68, 1212CP Hilversum","geometry":{"type":"Point","coordinates":[5.19483331,52.21868405]}}
{"company":"postnl","name":"Vivant","address":"Tussen Meer 375, 1069DR Amsterdam","geometry":{"type":"Point","coordinates":[4.79188626,52.35634977]}}
{"company":"postnl","name":"Voie Autorijschool","address":"Efua Sutherlandstraat 4, 1103MP Amsterdam","geometry":{"type":"Point","coordinates":[4.96799972,52.32121645]}}
{"company":"postnl","name":"Vojafix","address":"Zuideinde 3 A, 1131AC Volendam","geometry":{"type":"Point","coordinates":[5.07331775,52.49249502]}}
{"company":"postnl","name":"Vos Olie & Gas B.V.","address":"Butaanweg 3, 1041AH Amsterdam","geometry":{"type":"Point","coordinates":[4.85241471,52.40939659]}}
{"company":"postnl","name":"Vulpunt Almere","address":"Markerkant 12 3 -12, 1314AJ Almere","geometry":{"type":"Point","coordinates":[5.21715074,52.38611226]}}
{"company":"postnl","name":"Wijkwerken Beijum","address":"Claremaheerd 51 -53, 9736LC Groningen","geometry":{"type":"Point","coordinates":[6.60103531,53.2484037]}}
{"company":"postnl","name":"Woon- en DHZ Centrum Reigersbos","address":"Reigersbos 57, 1106AP Amsterdam","geometry":{"type":"Point","coordinates":[4.9760607,52.29651037]}}
{"company":"postnl","name":"Zainabia Telecom","address":"Frederik Hendrikstraat 128 PART, 1052JC Amsterdam","geometry":{"type":"Point","coordinates":[4.87275591,52.37512675]}}